{
"type": "FeatureCollection",
"crs": { "type": "name", "properties": { "name": "urn:ogc:def:crs:OGC:1.3:CRS84" } },
"features": [
{ "type": "Feature", "properties": { "city": "Clinton, WA", "cases": 1, "date": " July 4, 2014", "n": 85544, "shape": " Circle", "state": "WA", "year": 2014, "reports": 22 }, "geometry": { "type": "Point", "coordinates": [ -122.352274, 47.962381 ] } },
{ "type": "Feature", "properties": { "city": "Downingtown, PA", "cases": 1, "date": " July 4, 2014", "n": 68587, "shape": " Sphere", "state": "PA", "year": 2014, "reports": 21 }, "geometry": { "type": "Point", "coordinates": [ -75.702163, 40.008289 ] } },
{ "type": "Feature", "properties": { "city": "Lake Elsinore, CA", "cases": 1, "date": " January 1, 2014", "n": 9717, "shape": " Fireball", "state": "CA", "year": 2014, "reports": 20 }, "geometry": { "type": "Point", "coordinates": [ -117.335404, 33.685956 ] } },
{ "type": "Feature", "properties": { "city": "Oak Island, NC", "cases": 1, "date": " June 23, 2014", "n": 50679, "shape": " Circle", "state": "NC", "year": 2014, "reports": 19 }, "geometry": { "type": "Point", "coordinates": [ -78.119787, 33.91329 ] } },
{ "type": "Feature", "properties": { "city": "Myrtle Beach, SC", "cases": 1, "date": " June 25, 2014", "n": 73483, "shape": " Fireball", "state": "SC", "year": 2014, "reports": 19 }, "geometry": { "type": "Point", "coordinates": [ -78.886021, 33.710391 ] } },
{ "type": "Feature", "properties": { "city": "Newark, DE", "cases": 1, "date": " July 4, 2014", "n": 23361, "shape": " Cylinder", "state": "DE", "year": 2014, "reports": 19 }, "geometry": { "type": "Point", "coordinates": [ -75.757309, 39.677574 ] } },
{ "type": "Feature", "properties": { "city": "Chicago, IL", "cases": 1, "date": " July 4, 2014", "n": 32655, "shape": " Fireball", "state": "IL", "year": 2014, "reports": 18 }, "geometry": { "type": "Point", "coordinates": [ -87.681844, 41.837551 ] } },
{ "type": "Feature", "properties": { "city": "New York City, NY", "cases": 1, "date": " July 4, 2014", "n": 62343, "shape": " Circle", "state": "NY", "year": 2014, "reports": 18 }, "geometry": { "type": "Point", "coordinates": [ -73.98063, 40.749793 ] } },
{ "type": "Feature", "properties": { "city": "Menifee, CA", "cases": 1, "date": " July 5, 2014", "n": 9250, "shape": " Circle", "state": "CA", "year": 2014, "reports": 18 }, "geometry": { "type": "Point", "coordinates": [ -117.184383, 33.689858 ] } },
{ "type": "Feature", "properties": { "city": "Myrtle Beach, SC", "cases": 1, "date": " October 22, 2014", "n": 73368, "shape": " Fireball", "state": "SC", "year": 2014, "reports": 18 }, "geometry": { "type": "Point", "coordinates": [ -78.886021, 33.710391 ] } },
{ "type": "Feature", "properties": { "city": "Dana Point, CA", "cases": 1, "date": " June 18, 2014", "n": 9328, "shape": " Fireball", "state": "CA", "year": 2014, "reports": 15 }, "geometry": { "type": "Point", "coordinates": [ -117.713017, 33.463259 ] } },
{ "type": "Feature", "properties": { "city": "Cherry Grove Beach, SC", "cases": 1, "date": " June 26, 2014", "n": 73468, "shape": " Fireball", "state": "SC", "year": 2014, "reports": 15 }, "geometry": { "type": "Point", "coordinates": [ -78.6429214, 33.8277588 ] } },
{ "type": "Feature", "properties": { "city": "Atlanta, GA", "cases": 1, "date": " July 4, 2014", "n": 28923, "shape": " Circle", "state": "GA", "year": 2014, "reports": 13 }, "geometry": { "type": "Point", "coordinates": [ -84.414424, 33.760007 ] } },
{ "type": "Feature", "properties": { "city": "Austin, TX", "cases": 1, "date": " July 12, 2014", "n": 76453, "shape": " Circle", "state": "TX", "year": 2014, "reports": 13 }, "geometry": { "type": "Point", "coordinates": [ -97.753831, 30.304896 ] } },
{ "type": "Feature", "properties": { "city": "Myrtle Beach, SC", "cases": 1, "date": " August 19, 2014", "n": 73417, "shape": " Circle", "state": "SC", "year": 2014, "reports": 13 }, "geometry": { "type": "Point", "coordinates": [ -78.886021, 33.710391 ] } },
{ "type": "Feature", "properties": { "city": "Santa Ana, CA", "cases": 1, "date": " July 4, 2014", "n": 9271, "shape": " Circle", "state": "CA", "year": 2014, "reports": 12 }, "geometry": { "type": "Point", "coordinates": [ -117.882952, 33.736332 ] } },
{ "type": "Feature", "properties": { "city": "Livermore, CA", "cases": 1, "date": " January 1, 2014", "n": 9726, "shape": " Formation", "state": "CA", "year": 2014, "reports": 11 }, "geometry": { "type": "Point", "coordinates": [ -121.762518, 37.685467 ] } },
{ "type": "Feature", "properties": { "city": "Myrtle Beach, SC", "cases": 1, "date": " June 23, 2014", "n": 73496, "shape": " Sphere", "state": "SC", "year": 2014, "reports": 11 }, "geometry": { "type": "Point", "coordinates": [ -78.886021, 33.710391 ] } },
{ "type": "Feature", "properties": { "city": "Arvada, CO", "cases": 1, "date": " July 4, 2014", "n": 21615, "shape": " Formation", "state": "CO", "year": 2014, "reports": 11 }, "geometry": { "type": "Point", "coordinates": [ -105.150306, 39.833728 ] } },
{ "type": "Feature", "properties": { "city": "Bantam, CT", "cases": 1, "date": " July 4, 2014", "n": 20324, "shape": " Circle", "state": "CT", "year": 2014, "reports": 11 }, "geometry": { "type": "Point", "coordinates": [ -73.242263, 41.724745 ] } },
{ "type": "Feature", "properties": { "city": "Monroe, MI", "cases": 1, "date": " July 4, 2014", "n": 46963, "shape": " Sphere", "state": "MI", "year": 2014, "reports": 11 }, "geometry": { "type": "Point", "coordinates": [ -83.384903, 41.916678 ] } },
{ "type": "Feature", "properties": { "city": "Forest Lake, MN", "cases": 1, "date": " July 4, 2014", "n": 45587, "shape": " Fireball", "state": "MN", "year": 2014, "reports": 11 }, "geometry": { "type": "Point", "coordinates": [ -92.966831, 45.250692 ] } },
{ "type": "Feature", "properties": { "city": "Chillicothe, OH", "cases": 1, "date": " July 4, 2014", "n": 59287, "shape": " Fireball", "state": "OH", "year": 2014, "reports": 11 }, "geometry": { "type": "Point", "coordinates": [ -82.994059, 39.33866 ] } },
{ "type": "Feature", "properties": { "city": "Xenia, OH", "cases": 1, "date": " July 5, 2014", "n": 59282, "shape": " Fireball", "state": "OH", "year": 2014, "reports": 11 }, "geometry": { "type": "Point", "coordinates": [ -83.940808, 39.683133 ] } },
{ "type": "Feature", "properties": { "city": "Broadlands, VA", "cases": 1, "date": " July 4, 2014", "n": 81683, "shape": " Circle", "state": "VA", "year": 2014, "reports": 11 }, "geometry": { "type": "Point", "coordinates": [ -77.516983, 39.013635 ] } },
{ "type": "Feature", "properties": { "city": "Seekonk, MA", "cases": 1, "date": " July 6, 2014", "n": 40141, "shape": " Circle", "state": "MA", "year": 2014, "reports": 11 }, "geometry": { "type": "Point", "coordinates": [ -71.3226471, 41.8278999 ] } },
{ "type": "Feature", "properties": { "city": "Aliso Viejo, CA", "cases": 1, "date": " August 25, 2014", "n": 9149, "shape": " Changing", "state": "CA", "year": 2014, "reports": 11 }, "geometry": { "type": "Point", "coordinates": [ -117.728915, 33.579219 ] } },
{ "type": "Feature", "properties": { "city": "Tacoma, WA", "cases": 1, "date": " September 14, 2014", "n": 85444, "shape": " Fireball", "state": "WA", "year": 2014, "reports": 11 }, "geometry": { "type": "Point", "coordinates": [ -122.459832, 47.252199 ] } },
{ "type": "Feature", "properties": { "city": "Philadelphia, PA", "cases": 1, "date": " September 27, 2014", "n": 68425, "shape": " Circle", "state": "PA", "year": 2014, "reports": 11 }, "geometry": { "type": "Point", "coordinates": [ -75.133346, 40.009376 ] } },
{ "type": "Feature", "properties": { "city": "Burbank, CA", "cases": 1, "date": " January 1, 2014", "n": 9723, "shape": " Sphere", "state": "CA", "year": 2014, "reports": 10 }, "geometry": { "type": "Point", "coordinates": [ -118.326405, 34.190079 ] } },
{ "type": "Feature", "properties": { "city": "Verona, NC", "cases": 1, "date": " June 18, 2014", "n": 50677, "shape": " Circle", "state": "NC", "year": 2014, "reports": 10 }, "geometry": { "type": "Point", "coordinates": [ -77.4680328, 34.6730614 ] } },
{ "type": "Feature", "properties": { "city": "Pasadena, CA", "cases": 1, "date": " June 21, 2014", "n": 9309, "shape": " Fireball", "state": "CA", "year": 2014, "reports": 10 }, "geometry": { "type": "Point", "coordinates": [ -118.139593, 34.160592 ] } },
{ "type": "Feature", "properties": { "city": "Bucyrus, OH", "cases": 1, "date": " July 3, 2014", "n": 59306, "shape": " Fireball", "state": "OH", "year": 2014, "reports": 10 }, "geometry": { "type": "Point", "coordinates": [ -82.971632, 40.805119 ] } },
{ "type": "Feature", "properties": { "city": "Conroe, TX", "cases": 1, "date": " July 12, 2014", "n": 76436, "shape": " Circle", "state": "TX", "year": 2014, "reports": 10 }, "geometry": { "type": "Point", "coordinates": [ -95.470128, 30.319973 ] } },
{ "type": "Feature", "properties": { "city": "Brick, NJ", "cases": 1, "date": " August 23, 2014", "n": 54260, "shape": " Circle", "state": "NJ", "year": 2014, "reports": 10 }, "geometry": { "type": "Point", "coordinates": [ -74.137183199999896, 40.0578384 ] } },
{ "type": "Feature", "properties": { "city": "Rio Rancho, NM", "cases": 1, "date": " September 13, 2014", "n": 57184, "shape": " Circle", "state": "NM", "year": 2014, "reports": 10 }, "geometry": { "type": "Point", "coordinates": [ -106.698867, 35.28507 ] } },
{ "type": "Feature", "properties": { "city": "Salem, OR", "cases": 1, "date": " January 1, 2014", "n": 66298, "shape": " Circle", "state": "OR", "year": 2014, "reports": 9 }, "geometry": { "type": "Point", "coordinates": [ -123.023189, 44.923712 ] } },
{ "type": "Feature", "properties": { "city": "Conyers, GA", "cases": 1, "date": " January 15, 2014", "n": 29034, "shape": " Sphere", "state": "GA", "year": 2014, "reports": 9 }, "geometry": { "type": "Point", "coordinates": [ -83.983484, 33.657219 ] } },
{ "type": "Feature", "properties": { "city": "West Palm Beach, FL", "cases": 1, "date": " March 2, 2014", "n": 24235, "shape": " Circle", "state": "FL", "year": 2014, "reports": 9 }, "geometry": { "type": "Point", "coordinates": [ -80.12506, 26.746362 ] } },
{ "type": "Feature", "properties": { "city": "Newton, NJ", "cases": 1, "date": " June 15, 2014", "n": 54304, "shape": " Circle", "state": "NJ", "year": 2014, "reports": 9 }, "geometry": { "type": "Point", "coordinates": [ -74.753601, 41.051487 ] } },
{ "type": "Feature", "properties": { "city": "Pawleys Island, SC", "cases": 1, "date": " June 18, 2014", "n": 73500, "shape": " Circle", "state": "SC", "year": 2014, "reports": 9 }, "geometry": { "type": "Point", "coordinates": [ -79.124988, 33.428093 ] } },
{ "type": "Feature", "properties": { "city": "Lynn, IN", "cases": 1, "date": " July 4, 2014", "n": 35732, "shape": " Circle", "state": "IN", "year": 2014, "reports": 9 }, "geometry": { "type": "Point", "coordinates": [ -84.942455, 40.048718 ] } },
{ "type": "Feature", "properties": { "city": "New Albany, IN", "cases": 1, "date": " July 4, 2014", "n": 35729, "shape": " Circle", "state": "IN", "year": 2014, "reports": 9 }, "geometry": { "type": "Point", "coordinates": [ -85.827172, 38.307344 ] } },
{ "type": "Feature", "properties": { "city": "Bristol, PA", "cases": 1, "date": " August 9, 2014", "n": 68507, "shape": " Fireball", "state": "PA", "year": 2014, "reports": 9 }, "geometry": { "type": "Point", "coordinates": [ -74.852857, 40.103523 ] } },
{ "type": "Feature", "properties": { "city": "Holden Beach, NC", "cases": 1, "date": " August 21, 2014", "n": 50607, "shape": " Circle", "state": "NC", "year": 2014, "reports": 9 }, "geometry": { "type": "Point", "coordinates": [ -78.320769, 33.911987 ] } },
{ "type": "Feature", "properties": { "city": "Forks Township, PA", "cases": 1, "date": " August 28, 2014", "n": 68474, "shape": " Circle", "state": "PA", "year": 2014, "reports": 9 }, "geometry": { "type": "Point", "coordinates": [ -75.232955, 40.751764 ] } },
{ "type": "Feature", "properties": { "city": "Owings Mills, MD", "cases": 1, "date": " August 28, 2014", "n": 41771, "shape": " Cigar", "state": "MD", "year": 2014, "reports": 9 }, "geometry": { "type": "Point", "coordinates": [ -76.789371, 39.410494 ] } },
{ "type": "Feature", "properties": { "city": "Carlsbad, CA", "cases": 1, "date": " September 12, 2014", "n": 9095, "shape": " Chevron", "state": "CA", "year": 2014, "reports": 9 }, "geometry": { "type": "Point", "coordinates": [ -117.282835, 33.123909 ] } },
{ "type": "Feature", "properties": { "city": "Myrtle Beach, SC", "cases": 1, "date": " October 8, 2014", "n": 73385, "shape": " Circle", "state": "SC", "year": 2014, "reports": 9 }, "geometry": { "type": "Point", "coordinates": [ -78.886021, 33.710391 ] } },
{ "type": "Feature", "properties": { "city": "Anaheim, CA", "cases": 1, "date": " December 12, 2014", "n": 8918, "shape": " Chevron", "state": "CA", "year": 2014, "reports": 9 }, "geometry": { "type": "Point", "coordinates": [ -117.760071, 33.855497 ] } },
{ "type": "Feature", "properties": { "city": "Ocala, FL", "cases": 1, "date": " January 1, 2014", "n": 24362, "shape": " Sphere", "state": "FL", "year": 2014, "reports": 8 }, "geometry": { "type": "Point", "coordinates": [ -82.148784, 29.180258 ] } },
{ "type": "Feature", "properties": { "city": "Huntington Beach, CA", "cases": 1, "date": " January 9, 2014", "n": 9687, "shape": " Rectangle", "state": "CA", "year": 2014, "reports": 8 }, "geometry": { "type": "Point", "coordinates": [ -118.00933, 33.690569 ] } },
{ "type": "Feature", "properties": { "city": "Miami, FL", "cases": 1, "date": " February 2, 2014", "n": 24290, "shape": " Circle", "state": "FL", "year": 2014, "reports": 8 }, "geometry": { "type": "Point", "coordinates": [ -80.208615, 25.775163 ] } },
{ "type": "Feature", "properties": { "city": "Harriman, NY", "cases": 1, "date": " February 7, 2014", "n": 62443, "shape": " Circle", "state": "NY", "year": 2014, "reports": 8 }, "geometry": { "type": "Point", "coordinates": [ -74.144033, 41.309014 ] } },
{ "type": "Feature", "properties": { "city": "Palm City, FL", "cases": 1, "date": " April 1, 2014", "n": 24175, "shape": " Circle", "state": "FL", "year": 2014, "reports": 8 }, "geometry": { "type": "Point", "coordinates": [ -80.2693634, 27.1695194 ] } },
{ "type": "Feature", "properties": { "city": "Kissimmee, FL", "cases": 1, "date": " April 5, 2014", "n": 24156, "shape": " Fireball", "state": "FL", "year": 2014, "reports": 8 }, "geometry": { "type": "Point", "coordinates": [ -81.417831, 28.30278 ] } },
{ "type": "Feature", "properties": { "city": "Atwater, OH", "cases": 1, "date": " April 19, 2014", "n": 59372, "shape": " Disk", "state": "OH", "year": 2014, "reports": 8 }, "geometry": { "type": "Point", "coordinates": [ -81.157063, 41.028289 ] } },
{ "type": "Feature", "properties": { "city": "Kenmore, WA", "cases": 1, "date": " April 27, 2014", "n": 85622, "shape": " Circle", "state": "WA", "year": 2014, "reports": 8 }, "geometry": { "type": "Point", "coordinates": [ -122.246144, 47.752644 ] } },
{ "type": "Feature", "properties": { "city": "Cherry Hill, NJ", "cases": 1, "date": " June 15, 2014", "n": 54303, "shape": " Fireball", "state": "NJ", "year": 2014, "reports": 8 }, "geometry": { "type": "Point", "coordinates": [ -74.9870987, 39.9097252 ] } },
{ "type": "Feature", "properties": { "city": "Howell, NJ", "cases": 1, "date": " June 20, 2014", "n": 54296, "shape": " Circle", "state": "NJ", "year": 2014, "reports": 8 }, "geometry": { "type": "Point", "coordinates": [ -74.1814804, 40.1693802 ] } },
{ "type": "Feature", "properties": { "city": "Orlando, FL", "cases": 1, "date": " July 4, 2014", "n": 23998, "shape": " Circle", "state": "FL", "year": 2014, "reports": 8 }, "geometry": { "type": "Point", "coordinates": [ -81.29899, 28.415581 ] } },
{ "type": "Feature", "properties": { "city": "Three Oaks, MI", "cases": 1, "date": " July 5, 2014", "n": 46956, "shape": " Formation", "state": "MI", "year": 2014, "reports": 8 }, "geometry": { "type": "Point", "coordinates": [ -86.612384, 41.798909 ] } },
{ "type": "Feature", "properties": { "city": "Lancaster, PA", "cases": 1, "date": " July 6, 2014", "n": 68558, "shape": " Cylinder", "state": "PA", "year": 2014, "reports": 8 }, "geometry": { "type": "Point", "coordinates": [ -76.30099, 40.042061 ] } },
{ "type": "Feature", "properties": { "city": "McKinney, TX", "cases": 1, "date": " July 12, 2014", "n": 76448, "shape": " Circle", "state": "TX", "year": 2014, "reports": 8 }, "geometry": { "type": "Point", "coordinates": [ -96.668022, 33.198482 ] } },
{ "type": "Feature", "properties": { "city": "Clifton, NJ", "cases": 1, "date": " July 26, 2014", "n": 54280, "shape": " Fireball", "state": "NJ", "year": 2014, "reports": 8 }, "geometry": { "type": "Point", "coordinates": [ -74.160393, 40.862137 ] } },
{ "type": "Feature", "properties": { "city": "Staten Island, NY", "cases": 1, "date": " July 27, 2014", "n": 62300, "shape": " Fireball", "state": "NY", "year": 2014, "reports": 8 }, "geometry": { "type": "Point", "coordinates": [ -74.150201, 40.579532 ] } },
{ "type": "Feature", "properties": { "city": "Sutherlin, OR", "cases": 1, "date": " July 31, 2014", "n": 66173, "shape": " Circle", "state": "OR", "year": 2014, "reports": 8 }, "geometry": { "type": "Point", "coordinates": [ -123.322293, 43.388954 ] } },
{ "type": "Feature", "properties": { "city": "Douglasville, GA", "cases": 1, "date": " August 23, 2014", "n": 28895, "shape": " Circle", "state": "GA", "year": 2014, "reports": 8 }, "geometry": { "type": "Point", "coordinates": [ -84.707237, 33.738328 ] } },
{ "type": "Feature", "properties": { "city": "Newark, DE", "cases": 1, "date": " August 28, 2014", "n": 23344, "shape": " Circle", "state": "DE", "year": 2014, "reports": 8 }, "geometry": { "type": "Point", "coordinates": [ -75.757309, 39.677574 ] } },
{ "type": "Feature", "properties": { "city": "Merrick, NY", "cases": 1, "date": " August 28, 2014", "n": 62251, "shape": " Fireball", "state": "NY", "year": 2014, "reports": 8 }, "geometry": { "type": "Point", "coordinates": [ -73.551927, 40.651637 ] } },
{ "type": "Feature", "properties": { "city": "Lawrence, MA", "cases": 1, "date": " September 4, 2014", "n": 40086, "shape": " Chevron", "state": "MA", "year": 2014, "reports": 8 }, "geometry": { "type": "Point", "coordinates": [ -71.161357, 42.700273 ] } },
{ "type": "Feature", "properties": { "city": "Ellicott City, MD", "cases": 1, "date": " September 4, 2014", "n": 41764, "shape": " Circle", "state": "MD", "year": 2014, "reports": 8 }, "geometry": { "type": "Point", "coordinates": [ -76.7994308, 39.2687302 ] } },
{ "type": "Feature", "properties": { "city": "Altadena, CA", "cases": 1, "date": " September 11, 2014", "n": 9115, "shape": " Circle", "state": "CA", "year": 2014, "reports": 8 }, "geometry": { "type": "Point", "coordinates": [ -118.135589, 34.192212 ] } },
{ "type": "Feature", "properties": { "city": "Worcester, MA", "cases": 1, "date": " September 27, 2014", "n": 40062, "shape": " Fireball", "state": "MA", "year": 2014, "reports": 8 }, "geometry": { "type": "Point", "coordinates": [ -71.807783, 42.269478 ] } },
{ "type": "Feature", "properties": { "city": "Tustin, CA", "cases": 1, "date": " December 29, 2014", "n": 8871, "shape": " Cigar", "state": "CA", "year": 2014, "reports": 8 }, "geometry": { "type": "Point", "coordinates": [ -117.810603, 33.730908 ] } },
{ "type": "Feature", "properties": { "city": "Doylestown, WI", "cases": 1, "date": " January 8, 2014", "n": 83836, "shape": " Formation", "state": "WI", "year": 2014, "reports": 7 }, "geometry": { "type": "Point", "coordinates": [ -89.146858, 43.428274 ] } },
{ "type": "Feature", "properties": { "city": "Clackamas, OR", "cases": 1, "date": " January 23, 2014", "n": 66289, "shape": " Formation", "state": "OR", "year": 2014, "reports": 7 }, "geometry": { "type": "Point", "coordinates": [ -122.5540009, 45.4122009 ] } },
{ "type": "Feature", "properties": { "city": "Newark (I-95; near PA border), DE", "cases": 1, "date": " February 21, 2014", "n": 23365, "shape": " Circle", "state": "DE", "year": 2014, "reports": 7 }, "geometry": { "type": "Point", "coordinates": [ -75.757309, 39.677574 ] } },
{ "type": "Feature", "properties": { "city": "West Deptford, NJ", "cases": 1, "date": " February 23, 2014", "n": 54348, "shape": " Circle", "state": "NJ", "year": 2014, "reports": 7 }, "geometry": { "type": "Point", "coordinates": [ -75.199791, 39.8413582 ] } },
{ "type": "Feature", "properties": { "city": "Huntersville, NC", "cases": 1, "date": " May 3, 2014", "n": 50720, "shape": " Circle", "state": "NC", "year": 2014, "reports": 7 }, "geometry": { "type": "Point", "coordinates": [ -80.874023, 35.40578 ] } },
{ "type": "Feature", "properties": { "city": "Seattle, WA", "cases": 1, "date": " June 7, 2014", "n": 85586, "shape": " Fireball", "state": "WA", "year": 2014, "reports": 7 }, "geometry": { "type": "Point", "coordinates": [ -122.350876, 47.620499 ] } },
{ "type": "Feature", "properties": { "city": "Peabody, MA", "cases": 1, "date": " June 7, 2014", "n": 40162, "shape": " Circle", "state": "MA", "year": 2014, "reports": 7 }, "geometry": { "type": "Point", "coordinates": [ -70.969782, 42.534279 ] } },
{ "type": "Feature", "properties": { "city": "Auburn, WA", "cases": 1, "date": " June 8, 2014", "n": 85578, "shape": " Circle", "state": "WA", "year": 2014, "reports": 7 }, "geometry": { "type": "Point", "coordinates": [ -122.21, 47.303773 ] } },
{ "type": "Feature", "properties": { "city": "Georgetown, SC", "cases": 1, "date": " June 10, 2014", "n": 73522, "shape": " Circle", "state": "SC", "year": 2014, "reports": 7 }, "geometry": { "type": "Point", "coordinates": [ -79.280793, 33.372432 ] } },
{ "type": "Feature", "properties": { "city": "Conway, SC", "cases": 1, "date": " June 12, 2014", "n": 73510, "shape": " Circle", "state": "SC", "year": 2014, "reports": 7 }, "geometry": { "type": "Point", "coordinates": [ -79.034885, 33.848148 ] } },
{ "type": "Feature", "properties": { "city": "Chicago, IL", "cases": 1, "date": " June 14, 2014", "n": 32675, "shape": " Egg", "state": "IL", "year": 2014, "reports": 7 }, "geometry": { "type": "Point", "coordinates": [ -87.681844, 41.837551 ] } },
{ "type": "Feature", "properties": { "city": "Gloucester, MA", "cases": 1, "date": " June 20, 2014", "n": 40154, "shape": " Circle", "state": "MA", "year": 2014, "reports": 7 }, "geometry": { "type": "Point", "coordinates": [ -70.685875, 42.62885 ] } },
{ "type": "Feature", "properties": { "city": "Orlando, FL", "cases": 1, "date": " June 23, 2014", "n": 24027, "shape": " Circle", "state": "FL", "year": 2014, "reports": 7 }, "geometry": { "type": "Point", "coordinates": [ -81.29899, 28.415581 ] } },
{ "type": "Feature", "properties": { "city": "Mission Viejo, CA", "cases": 1, "date": " June 25, 2014", "n": 9296, "shape": " Circle", "state": "CA", "year": 2014, "reports": 7 }, "geometry": { "type": "Point", "coordinates": [ -117.656471, 33.609335 ] } },
{ "type": "Feature", "properties": { "city": "Hubbard, OH", "cases": 1, "date": " July 4, 2014", "n": 59285, "shape": " Fireball", "state": "OH", "year": 2014, "reports": 7 }, "geometry": { "type": "Point", "coordinates": [ -80.567954, 41.158924 ] } },
{ "type": "Feature", "properties": { "city": "Hillsboro, OR", "cases": 1, "date": " July 4, 2014", "n": 66199, "shape": " Circle", "state": "OR", "year": 2014, "reports": 7 }, "geometry": { "type": "Point", "coordinates": [ -122.937143, 45.530767 ] } },
{ "type": "Feature", "properties": { "city": "Clarkesville, GA", "cases": 1, "date": " July 6, 2014", "n": 28918, "shape": " Sphere", "state": "GA", "year": 2014, "reports": 7 }, "geometry": { "type": "Point", "coordinates": [ -83.52747, 34.609289 ] } },
{ "type": "Feature", "properties": { "city": "Bay Village, OH", "cases": 1, "date": " July 5, 2014", "n": 59276, "shape": " Fireball", "state": "OH", "year": 2014, "reports": 7 }, "geometry": { "type": "Point", "coordinates": [ -81.922084499999897, 41.4847662 ] } },
{ "type": "Feature", "properties": { "city": "Easton, PA", "cases": 1, "date": " August 16, 2014", "n": 68493, "shape": " Circle", "state": "PA", "year": 2014, "reports": 7 }, "geometry": { "type": "Point", "coordinates": [ -75.218548, 40.685971 ] } },
{ "type": "Feature", "properties": { "city": "Salem, NH", "cases": 1, "date": " August 28, 2014", "n": 53527, "shape": " Cigar", "state": "NH", "year": 2014, "reports": 7 }, "geometry": { "type": "Point", "coordinates": [ -71.2020416, 42.7879715 ] } },
{ "type": "Feature", "properties": { "city": "Mukwonago, WI", "cases": 1, "date": " August 30, 2014", "n": 83758, "shape": " Fireball", "state": "WI", "year": 2014, "reports": 7 }, "geometry": { "type": "Point", "coordinates": [ -88.324302, 42.855239 ] } },
{ "type": "Feature", "properties": { "city": "New Haven, CT", "cases": 1, "date": " September 27, 2014", "n": 20293, "shape": " Fireball", "state": "CT", "year": 2014, "reports": 7 }, "geometry": { "type": "Point", "coordinates": [ -72.924953, 41.310809 ] } },
{ "type": "Feature", "properties": { "city": "Marshfield, MA", "cases": 1, "date": " September 27, 2014", "n": 40064, "shape": " Circle", "state": "MA", "year": 2014, "reports": 7 }, "geometry": { "type": "Point", "coordinates": [ -70.689396, 42.102231 ] } },
{ "type": "Feature", "properties": { "city": "Cape May, NJ", "cases": 1, "date": " September 28, 2014", "n": 54236, "shape": " Circle", "state": "NJ", "year": 2014, "reports": 7 }, "geometry": { "type": "Point", "coordinates": [ -74.900483, 38.941558 ] } },
{ "type": "Feature", "properties": { "city": "Waterbury, CT", "cases": 1, "date": " October 8, 2014", "n": 20290, "shape": " Circle", "state": "CT", "year": 2014, "reports": 7 }, "geometry": { "type": "Point", "coordinates": [ -73.036685, 41.5585 ] } },
{ "type": "Feature", "properties": { "city": "Chandler, AZ", "cases": 1, "date": " December 10, 2014", "n": 5520, "shape": " Sphere", "state": "AZ", "year": 2014, "reports": 7 }, "geometry": { "type": "Point", "coordinates": [ -111.854943, 33.282874 ] } },
{ "type": "Feature", "properties": { "city": "Bridgeport, CT", "cases": 1, "date": " December 29, 2014", "n": 20275, "shape": " Fireball", "state": "CT", "year": 2014, "reports": 7 }, "geometry": { "type": "Point", "coordinates": [ -73.195757, 41.187393 ] } },
{ "type": "Feature", "properties": { "city": "New York City (Queens), NY", "cases": 1, "date": " January 11, 2014", "n": 62454, "shape": " Circle", "state": "NY", "year": 2014, "reports": 6 }, "geometry": { "type": "Point", "coordinates": [ -74.005941, 40.712784 ] } },
{ "type": "Feature", "properties": { "city": "Delanco, NJ", "cases": 1, "date": " January 19, 2014", "n": 54358, "shape": " Triangle", "state": "NJ", "year": 2014, "reports": 6 }, "geometry": { "type": "Point", "coordinates": [ -74.9572372, 40.0513992 ] } },
{ "type": "Feature", "properties": { "city": "Palm Beach Gardens, FL", "cases": 1, "date": " January 25, 2014", "n": 24316, "shape": " Circle", "state": "FL", "year": 2014, "reports": 6 }, "geometry": { "type": "Point", "coordinates": [ -80.167124, 26.848788 ] } },
{ "type": "Feature", "properties": { "city": "Front Royal, VA", "cases": 1, "date": " January 30, 2014", "n": 81757, "shape": " Diamond", "state": "VA", "year": 2014, "reports": 6 }, "geometry": { "type": "Point", "coordinates": [ -78.185648, 38.924848 ] } },
{ "type": "Feature", "properties": { "city": "Gresham, OR", "cases": 1, "date": " February 1, 2014", "n": 66281, "shape": " Fireball", "state": "OR", "year": 2014, "reports": 6 }, "geometry": { "type": "Point", "coordinates": [ -122.441609, 45.502319 ] } },
{ "type": "Feature", "properties": { "city": "Greenacres, FL", "cases": 1, "date": " February 14, 2014", "n": 24273, "shape": " Circle", "state": "FL", "year": 2014, "reports": 6 }, "geometry": { "type": "Point", "coordinates": [ -80.137208, 26.627577 ] } },
{ "type": "Feature", "properties": { "city": "Daytona Beach, FL", "cases": 1, "date": " February 21, 2014", "n": 24254, "shape": " Circle", "state": "FL", "year": 2014, "reports": 6 }, "geometry": { "type": "Point", "coordinates": [ -81.08937, 29.190121 ] } },
{ "type": "Feature", "properties": { "city": "Newport Beach, CA", "cases": 1, "date": " February 22, 2014", "n": 9582, "shape": " Circle", "state": "CA", "year": 2014, "reports": 6 }, "geometry": { "type": "Point", "coordinates": [ -117.890263, 33.597133 ] } },
{ "type": "Feature", "properties": { "city": "Pomona, CA", "cases": 1, "date": " March 8, 2014", "n": 9549, "shape": " Disk", "state": "CA", "year": 2014, "reports": 6 }, "geometry": { "type": "Point", "coordinates": [ -117.761091, 34.058494 ] } },
{ "type": "Feature", "properties": { "city": "Davie, FL", "cases": 1, "date": " March 8, 2014", "n": 24224, "shape": " Circle", "state": "FL", "year": 2014, "reports": 6 }, "geometry": { "type": "Point", "coordinates": [ -80.285028, 26.079142 ] } },
{ "type": "Feature", "properties": { "city": "Anthem, AZ", "cases": 1, "date": " April 20, 2014", "n": 5707, "shape": " Circle", "state": "AZ", "year": 2014, "reports": 6 }, "geometry": { "type": "Point", "coordinates": [ -112.127014, 33.8467 ] } },
{ "type": "Feature", "properties": { "city": "Whittier, CA", "cases": 1, "date": " April 26, 2014", "n": 9434, "shape": " Circle", "state": "CA", "year": 2014, "reports": 6 }, "geometry": { "type": "Point", "coordinates": [ -118.020122, 33.966827 ] } },
{ "type": "Feature", "properties": { "city": "Fyffe, AL", "cases": 1, "date": " May 1, 2014", "n": 533, "shape": " Unknown", "state": "AL", "year": 2014, "reports": 6 }, "geometry": { "type": "Point", "coordinates": [ -85.904969, 34.449615 ] } },
{ "type": "Feature", "properties": { "city": "Springfield, OH", "cases": 1, "date": " June 6, 2014", "n": 59335, "shape": " Sphere", "state": "OH", "year": 2014, "reports": 6 }, "geometry": { "type": "Point", "coordinates": [ -83.797365, 39.928825 ] } },
{ "type": "Feature", "properties": { "city": "Geneva, NY", "cases": 1, "date": " June 20, 2014", "n": 62368, "shape": " Fireball", "state": "NY", "year": 2014, "reports": 6 }, "geometry": { "type": "Point", "coordinates": [ -76.982722, 42.863488 ] } },
{ "type": "Feature", "properties": { "city": "Orefield, PA", "cases": 1, "date": " June 20, 2014", "n": 68608, "shape": " Oval", "state": "PA", "year": 2014, "reports": 6 }, "geometry": { "type": "Point", "coordinates": [ -75.5814133, 40.6247902 ] } },
{ "type": "Feature", "properties": { "city": "Levittown, NY", "cases": 1, "date": " June 28, 2014", "n": 62352, "shape": " Fireball", "state": "NY", "year": 2014, "reports": 6 }, "geometry": { "type": "Point", "coordinates": [ -73.512709, 40.72399 ] } },
{ "type": "Feature", "properties": { "city": "West Grove, PA", "cases": 1, "date": " June 29, 2014", "n": 68596, "shape": " Circle", "state": "PA", "year": 2014, "reports": 6 }, "geometry": { "type": "Point", "coordinates": [ -75.828516, 39.820187 ] } },
{ "type": "Feature", "properties": { "city": "Brooksville, FL", "cases": 1, "date": " July 3, 2014", "n": 24008, "shape": " Circle", "state": "FL", "year": 2014, "reports": 6 }, "geometry": { "type": "Point", "coordinates": [ -82.404665, 28.516578 ] } },
{ "type": "Feature", "properties": { "city": "Half Moon Bay, CA", "cases": 1, "date": " July 4, 2014", "n": 9258, "shape": " Sphere", "state": "CA", "year": 2014, "reports": 6 }, "geometry": { "type": "Point", "coordinates": [ -122.440474, 37.467314 ] } },
{ "type": "Feature", "properties": { "city": "Millington\/Clio, MI", "cases": 1, "date": " July 5, 2014", "n": 46958, "shape": " Fireball", "state": "MI", "year": 2014, "reports": 6 }, "geometry": { "type": "Point", "coordinates": [ -83.523803, 43.272849 ] } },
{ "type": "Feature", "properties": { "city": "Point Pleasant, NJ", "cases": 1, "date": " July 6, 2014", "n": 54288, "shape": " Circle", "state": "NJ", "year": 2014, "reports": 6 }, "geometry": { "type": "Point", "coordinates": [ -74.069921, 40.077748 ] } },
{ "type": "Feature", "properties": { "city": "Douglassville, PA", "cases": 1, "date": " July 12, 2014", "n": 68548, "shape": " Fireball", "state": "PA", "year": 2014, "reports": 6 }, "geometry": { "type": "Point", "coordinates": [ -75.724234, 40.259894 ] } },
{ "type": "Feature", "properties": { "city": "North Myrtle Beach, SC", "cases": 1, "date": " July 17, 2014", "n": 73438, "shape": " Circle", "state": "SC", "year": 2014, "reports": 6 }, "geometry": { "type": "Point", "coordinates": [ -78.751262, 33.802921 ] } },
{ "type": "Feature", "properties": { "city": "Kennett Sqaure, PA", "cases": 1, "date": " July 19, 2014", "n": 68531, "shape": " Sphere", "state": "PA", "year": 2014, "reports": 6 }, "geometry": { "type": "Point", "coordinates": [ -75.7108765, 39.8478203 ] } },
{ "type": "Feature", "properties": { "city": "Seattle, WA", "cases": 1, "date": " July 27, 2014", "n": 85511, "shape": " Cigar", "state": "WA", "year": 2014, "reports": 6 }, "geometry": { "type": "Point", "coordinates": [ -122.350876, 47.620499 ] } },
{ "type": "Feature", "properties": { "city": "Miami Beach, FL", "cases": 1, "date": " August 2, 2014", "n": 23955, "shape": " Circle", "state": "FL", "year": 2014, "reports": 6 }, "geometry": { "type": "Point", "coordinates": [ -80.139721, 25.815265 ] } },
{ "type": "Feature", "properties": { "city": "Banks, OR", "cases": 1, "date": " August 9, 2014", "n": 66161, "shape": " Oval", "state": "OR", "year": 2014, "reports": 6 }, "geometry": { "type": "Point", "coordinates": [ -123.111556, 45.614538 ] } },
{ "type": "Feature", "properties": { "city": "Chandler, AZ", "cases": 1, "date": " September 20, 2014", "n": 5601, "shape": " Fireball", "state": "AZ", "year": 2014, "reports": 6 }, "geometry": { "type": "Point", "coordinates": [ -111.854943, 33.282874 ] } },
{ "type": "Feature", "properties": { "city": "Edmonds\/Shoreline, WA", "cases": 1, "date": " September 27, 2014", "n": 85425, "shape": " Cylinder", "state": "WA", "year": 2014, "reports": 6 }, "geometry": { "type": "Point", "coordinates": [ -122.367469, 47.825493 ] } },
{ "type": "Feature", "properties": { "city": "Wellington Lake, CO", "cases": 1, "date": " October 3, 2014", "n": 21545, "shape": " Circle", "state": "CO", "year": 2014, "reports": 6 }, "geometry": { "type": "Point", "coordinates": [ -105.5478134, 38.9985428 ] } },
{ "type": "Feature", "properties": { "city": "Toms River, NJ", "cases": 1, "date": " October 3, 2014", "n": 54232, "shape": " Fireball", "state": "NJ", "year": 2014, "reports": 6 }, "geometry": { "type": "Point", "coordinates": [ -74.187754, 39.994856 ] } },
{ "type": "Feature", "properties": { "city": "Millville, MA", "cases": 1, "date": " October 8, 2014", "n": 40054, "shape": " Fireball", "state": "MA", "year": 2014, "reports": 6 }, "geometry": { "type": "Point", "coordinates": [ -71.580719, 42.0271111 ] } },
{ "type": "Feature", "properties": { "city": "Sharpsburg, GA", "cases": 1, "date": " October 9, 2014", "n": 28864, "shape": " Sphere", "state": "GA", "year": 2014, "reports": 6 }, "geometry": { "type": "Point", "coordinates": [ -84.649833, 33.338347 ] } },
{ "type": "Feature", "properties": { "city": "Coral Springs, FL", "cases": 1, "date": " October 16, 2014", "n": 23850, "shape": " Triangle", "state": "FL", "year": 2014, "reports": 6 }, "geometry": { "type": "Point", "coordinates": [ -80.259301, 26.270722 ] } },
{ "type": "Feature", "properties": { "city": "Scottsdale, AZ", "cases": 1, "date": " October 23, 2014", "n": 5569, "shape": " Circle", "state": "AZ", "year": 2014, "reports": 6 }, "geometry": { "type": "Point", "coordinates": [ -111.86112, 33.684347 ] } },
{ "type": "Feature", "properties": { "city": "Cherry Hill, NJ", "cases": 1, "date": " October 25, 2014", "n": 54221, "shape": " Circle", "state": "NJ", "year": 2014, "reports": 6 }, "geometry": { "type": "Point", "coordinates": [ -74.9870987, 39.9097252 ] } },
{ "type": "Feature", "properties": { "city": "Chocorua, NH", "cases": 1, "date": " October 30, 2014", "n": 53506, "shape": " Formation", "state": "NH", "year": 2014, "reports": 6 }, "geometry": { "type": "Point", "coordinates": [ -71.2529297, 43.8921204 ] } },
{ "type": "Feature", "properties": { "city": "Chandler, AZ", "cases": 1, "date": " November 14, 2014", "n": 5544, "shape": " Circle", "state": "AZ", "year": 2014, "reports": 6 }, "geometry": { "type": "Point", "coordinates": [ -111.854943, 33.282874 ] } },
{ "type": "Feature", "properties": { "city": "Attleboro, MA", "cases": 1, "date": " November 15, 2014", "n": 40031, "shape": " Fireball", "state": "MA", "year": 2014, "reports": 6 }, "geometry": { "type": "Point", "coordinates": [ -71.294503, 41.931653 ] } },
{ "type": "Feature", "properties": { "city": "Columbia (going toward on 295), MD", "cases": 1, "date": " November 21, 2014", "n": 41729, "shape": " Egg", "state": "MD", "year": 2014, "reports": 6 }, "geometry": { "type": "Point", "coordinates": [ -76.85905, 39.201146 ] } },
{ "type": "Feature", "properties": { "city": "Mount Prospect, IL", "cases": 1, "date": " December 5, 2014", "n": 32565, "shape": " Fireball", "state": "IL", "year": 2014, "reports": 6 }, "geometry": { "type": "Point", "coordinates": [ -87.937499, 42.065406 ] } },
{ "type": "Feature", "properties": { "city": "Irvine, CA", "cases": 1, "date": " December 24, 2014", "n": 8890, "shape": " Fireball", "state": "CA", "year": 2014, "reports": 6 }, "geometry": { "type": "Point", "coordinates": [ -117.771254, 33.678399 ] } },
{ "type": "Feature", "properties": { "city": "Port Ludlow, WA", "cases": 1, "date": " December 31, 2014", "n": 85351, "shape": " Fireball", "state": "WA", "year": 2014, "reports": 6 }, "geometry": { "type": "Point", "coordinates": [ -122.695066, 47.914582 ] } },
{ "type": "Feature", "properties": { "city": "Rohnert Park, CA", "cases": 1, "date": " January 1, 2014", "n": 9728, "shape": " Sphere", "state": "CA", "year": 2014, "reports": 5 }, "geometry": { "type": "Point", "coordinates": [ -122.698882, 38.348213 ] } },
{ "type": "Feature", "properties": { "city": "Boca Raton, FL", "cases": 1, "date": " January 1, 2014", "n": 24360, "shape": " Circle", "state": "FL", "year": 2014, "reports": 5 }, "geometry": { "type": "Point", "coordinates": [ -80.103697, 26.372419 ] } },
{ "type": "Feature", "properties": { "city": "Riverside, CA", "cases": 1, "date": " January 2, 2014", "n": 9710, "shape": " Fireball", "state": "CA", "year": 2014, "reports": 5 }, "geometry": { "type": "Point", "coordinates": [ -117.393168, 33.938143 ] } },
{ "type": "Feature", "properties": { "city": "San Francisco, CA", "cases": 1, "date": " January 6, 2014", "n": 9694, "shape": " Formation", "state": "CA", "year": 2014, "reports": 5 }, "geometry": { "type": "Point", "coordinates": [ -123.032229, 37.727239 ] } },
{ "type": "Feature", "properties": { "city": "Miami Beach, FL", "cases": 1, "date": " January 18, 2014", "n": 24335, "shape": " Formation", "state": "FL", "year": 2014, "reports": 5 }, "geometry": { "type": "Point", "coordinates": [ -80.139721, 25.815265 ] } },
{ "type": "Feature", "properties": { "city": "Westminster, CA", "cases": 1, "date": " January 18, 2014", "n": 9669, "shape": " Circle", "state": "CA", "year": 2014, "reports": 5 }, "geometry": { "type": "Point", "coordinates": [ -117.993874, 33.752292 ] } },
{ "type": "Feature", "properties": { "city": "Dania Beach, FL", "cases": 1, "date": " January 19, 2014", "n": 24331, "shape": " Formation", "state": "FL", "year": 2014, "reports": 5 }, "geometry": { "type": "Point", "coordinates": [ -80.164585, 26.057213 ] } },
{ "type": "Feature", "properties": { "city": "Vacaville, CA", "cases": 1, "date": " January 21, 2014", "n": 9659, "shape": " Circle", "state": "CA", "year": 2014, "reports": 5 }, "geometry": { "type": "Point", "coordinates": [ -121.969452, 38.357372 ] } },
{ "type": "Feature", "properties": { "city": "Sacramento, CA", "cases": 1, "date": " February 16, 2014", "n": 9608, "shape": " Circle", "state": "CA", "year": 2014, "reports": 5 }, "geometry": { "type": "Point", "coordinates": [ -121.468632, 38.566592 ] } },
{ "type": "Feature", "properties": { "city": "Gila Bend, AZ", "cases": 1, "date": " February 20, 2014", "n": 5760, "shape": " Circle", "state": "AZ", "year": 2014, "reports": 5 }, "geometry": { "type": "Point", "coordinates": [ -112.715463, 32.966241 ] } },
{ "type": "Feature", "properties": { "city": "Stockton, CA", "cases": 1, "date": " February 22, 2014", "n": 9585, "shape": " Circle", "state": "CA", "year": 2014, "reports": 5 }, "geometry": { "type": "Point", "coordinates": [ -121.313304, 37.976342 ] } },
{ "type": "Feature", "properties": { "city": "Winter Park, FL", "cases": 1, "date": " February 23, 2014", "n": 24247, "shape": " Oval", "state": "FL", "year": 2014, "reports": 5 }, "geometry": { "type": "Point", "coordinates": [ -81.345745, 28.596629 ] } },
{ "type": "Feature", "properties": { "city": "Canandaigua, NY", "cases": 1, "date": " February 28, 2014", "n": 62426, "shape": " Teardrop", "state": "NY", "year": 2014, "reports": 5 }, "geometry": { "type": "Point", "coordinates": [ -77.280321, 42.888999 ] } },
{ "type": "Feature", "properties": { "city": "Coral Springs, FL", "cases": 1, "date": " March 12, 2014", "n": 24211, "shape": " Circle", "state": "FL", "year": 2014, "reports": 5 }, "geometry": { "type": "Point", "coordinates": [ -80.259301, 26.270722 ] } },
{ "type": "Feature", "properties": { "city": "Clermont, FL", "cases": 1, "date": " March 18, 2014", "n": 24203, "shape": " Triangle", "state": "FL", "year": 2014, "reports": 5 }, "geometry": { "type": "Point", "coordinates": [ -81.764779, 28.558302 ] } },
{ "type": "Feature", "properties": { "city": "Temecula, CA", "cases": 1, "date": " April 4, 2014", "n": 9501, "shape": " Disk", "state": "CA", "year": 2014, "reports": 5 }, "geometry": { "type": "Point", "coordinates": [ -117.13173, 33.493082 ] } },
{ "type": "Feature", "properties": { "city": "Longboat Key, FL", "cases": 1, "date": " April 5, 2014", "n": 24162, "shape": " Fireball", "state": "FL", "year": 2014, "reports": 5 }, "geometry": { "type": "Point", "coordinates": [ -82.64348, 27.395596 ] } },
{ "type": "Feature", "properties": { "city": "San Rafael, CA", "cases": 1, "date": " April 10, 2014", "n": 9479, "shape": " Sphere", "state": "CA", "year": 2014, "reports": 5 }, "geometry": { "type": "Point", "coordinates": [ -122.50693, 37.981003 ] } },
{ "type": "Feature", "properties": { "city": "Glendora, CA", "cases": 1, "date": " April 15, 2014", "n": 9463, "shape": " Cylinder", "state": "CA", "year": 2014, "reports": 5 }, "geometry": { "type": "Point", "coordinates": [ -117.847667, 34.144967 ] } },
{ "type": "Feature", "properties": { "city": "Dauphin Island (off the coast of), AL", "cases": 1, "date": " April 24, 2014", "n": 542, "shape": " Formation", "state": "AL", "year": 2014, "reports": 5 }, "geometry": { "type": "Point", "coordinates": [ -88.171268, 30.250913 ] } },
{ "type": "Feature", "properties": { "city": "Chino Hills, CA", "cases": 1, "date": " April 30, 2014", "n": 9424, "shape": " Triangle", "state": "CA", "year": 2014, "reports": 5 }, "geometry": { "type": "Point", "coordinates": [ -117.725648, 33.942969 ] } },
{ "type": "Feature", "properties": { "city": "Gloucester, MA", "cases": 1, "date": " May 10, 2014", "n": 40173, "shape": " Circle", "state": "MA", "year": 2014, "reports": 5 }, "geometry": { "type": "Point", "coordinates": [ -70.685875, 42.62885 ] } },
{ "type": "Feature", "properties": { "city": "Buford, GA", "cases": 1, "date": " May 15, 2014", "n": 28958, "shape": " Fireball", "state": "GA", "year": 2014, "reports": 5 }, "geometry": { "type": "Point", "coordinates": [ -83.991829, 34.120015 ] } },
{ "type": "Feature", "properties": { "city": "Villa Rica, GA", "cases": 1, "date": " May 17, 2014", "n": 28954, "shape": " Fireball", "state": "GA", "year": 2014, "reports": 5 }, "geometry": { "type": "Point", "coordinates": [ -84.915226, 33.73324 ] } },
{ "type": "Feature", "properties": { "city": "Algonquin, IL", "cases": 1, "date": " May 25, 2014", "n": 32684, "shape": " Fireball", "state": "IL", "year": 2014, "reports": 5 }, "geometry": { "type": "Point", "coordinates": [ -88.315603, 42.162506 ] } },
{ "type": "Feature", "properties": { "city": "Levittown, NY", "cases": 1, "date": " May 25, 2014", "n": 62385, "shape": " Oval", "state": "NY", "year": 2014, "reports": 5 }, "geometry": { "type": "Point", "coordinates": [ -73.512709, 40.72399 ] } },
{ "type": "Feature", "properties": { "city": "Manville, NJ", "cases": 1, "date": " June 7, 2014", "n": 54309, "shape": " Triangle", "state": "NJ", "year": 2014, "reports": 5 }, "geometry": { "type": "Point", "coordinates": [ -74.589273, 40.541269 ] } },
{ "type": "Feature", "properties": { "city": "Long Beach, CA", "cases": 1, "date": " June 14, 2014", "n": 9343, "shape": " Circle", "state": "CA", "year": 2014, "reports": 5 }, "geometry": { "type": "Point", "coordinates": [ -118.15529, 33.809179 ] } },
{ "type": "Feature", "properties": { "city": "Portland, CT", "cases": 1, "date": " June 21, 2014", "n": 20326, "shape": " Circle", "state": "CT", "year": 2014, "reports": 5 }, "geometry": { "type": "Point", "coordinates": [ -72.619788, 41.577463 ] } },
{ "type": "Feature", "properties": { "city": "Hillsboro, MO", "cases": 1, "date": " June 21, 2014", "n": 43697, "shape": " Rectangle", "state": "MO", "year": 2014, "reports": 5 }, "geometry": { "type": "Point", "coordinates": [ -90.566993, 38.233023 ] } },
{ "type": "Feature", "properties": { "city": "McMinnville, OR", "cases": 1, "date": " June 20, 2014", "n": 66215, "shape": " Formation", "state": "OR", "year": 2014, "reports": 5 }, "geometry": { "type": "Point", "coordinates": [ -123.191827, 45.210996 ] } },
{ "type": "Feature", "properties": { "city": "Cape Coral, FL", "cases": 1, "date": " July 4, 2014", "n": 24004, "shape": " Circle", "state": "FL", "year": 2014, "reports": 5 }, "geometry": { "type": "Point", "coordinates": [ -81.997364, 26.643192 ] } },
{ "type": "Feature", "properties": { "city": "Noblesville, IN", "cases": 1, "date": " July 4, 2014", "n": 35728, "shape": " Sphere", "state": "IN", "year": 2014, "reports": 5 }, "geometry": { "type": "Point", "coordinates": [ -86.007192, 40.036979 ] } },
{ "type": "Feature", "properties": { "city": "Cottleville, MO", "cases": 1, "date": " July 4, 2014", "n": 43679, "shape": " Triangle", "state": "MO", "year": 2014, "reports": 5 }, "geometry": { "type": "Point", "coordinates": [ -90.658244, 38.751259 ] } },
{ "type": "Feature", "properties": { "city": "Johnstown, PA", "cases": 1, "date": " July 4, 2014", "n": 68581, "shape": " Fireball", "state": "PA", "year": 2014, "reports": 5 }, "geometry": { "type": "Point", "coordinates": [ -78.919139, 40.326132 ] } },
{ "type": "Feature", "properties": { "city": "Loon Lake, WA", "cases": 1, "date": " July 4, 2014", "n": 85537, "shape": " Oval", "state": "WA", "year": 2014, "reports": 5 }, "geometry": { "type": "Point", "coordinates": [ -117.629781, 48.068485 ] } },
{ "type": "Feature", "properties": { "city": "Monroe, WA", "cases": 1, "date": " July 12, 2014", "n": 85519, "shape": " Fireball", "state": "WA", "year": 2014, "reports": 5 }, "geometry": { "type": "Point", "coordinates": [ -121.984049, 47.859833 ] } },
{ "type": "Feature", "properties": { "city": "Zebulon, GA", "cases": 1, "date": " July 16, 2014", "n": 28911, "shape": " Disk", "state": "GA", "year": 2014, "reports": 5 }, "geometry": { "type": "Point", "coordinates": [ -84.343437, 33.094165 ] } },
{ "type": "Feature", "properties": { "city": "Moncure, NC", "cases": 1, "date": " July 18, 2014", "n": 50643, "shape": " Circle", "state": "NC", "year": 2014, "reports": 5 }, "geometry": { "type": "Point", "coordinates": [ -79.074681, 35.62582 ] } },
{ "type": "Feature", "properties": { "city": "Larkspur, CO", "cases": 1, "date": " July 22, 2014", "n": 21597, "shape": " Disk", "state": "CO", "year": 2014, "reports": 5 }, "geometry": { "type": "Point", "coordinates": [ -104.885758, 39.229776 ] } },
{ "type": "Feature", "properties": { "city": "Wakefield, MA", "cases": 1, "date": " July 29, 2014", "n": 40127, "shape": " Circle", "state": "MA", "year": 2014, "reports": 5 }, "geometry": { "type": "Point", "coordinates": [ -71.064061, 42.50436 ] } },
{ "type": "Feature", "properties": { "city": "Williamstown, NJ", "cases": 1, "date": " July 30, 2014", "n": 54274, "shape": " Flash", "state": "NJ", "year": 2014, "reports": 5 }, "geometry": { "type": "Point", "coordinates": [ -74.968819, 39.684113 ] } },
{ "type": "Feature", "properties": { "city": "Freeport, NY", "cases": 1, "date": " August 1, 2014", "n": 62293, "shape": " Fireball", "state": "NY", "year": 2014, "reports": 5 }, "geometry": { "type": "Point", "coordinates": [ -73.584993, 40.652407 ] } },
{ "type": "Feature", "properties": { "city": "Tustin, CA", "cases": 1, "date": " August 5, 2014", "n": 9197, "shape": " Fireball", "state": "CA", "year": 2014, "reports": 5 }, "geometry": { "type": "Point", "coordinates": [ -117.810603, 33.730908 ] } },
{ "type": "Feature", "properties": { "city": "Pittsburgh, PA", "cases": 1, "date": " August 8, 2014", "n": 68512, "shape": " Disk", "state": "PA", "year": 2014, "reports": 5 }, "geometry": { "type": "Point", "coordinates": [ -79.976592, 40.439753 ] } },
{ "type": "Feature", "properties": { "city": "Swan Quarters, NC", "cases": 1, "date": " August 14, 2014", "n": 50618, "shape": " Fireball", "state": "NC", "year": 2014, "reports": 5 }, "geometry": { "type": "Point", "coordinates": [ -76.325887, 35.394774 ] } },
{ "type": "Feature", "properties": { "city": "Greeley, CO", "cases": 1, "date": " August 15, 2014", "n": 21585, "shape": " Triangle", "state": "CO", "year": 2014, "reports": 5 }, "geometry": { "type": "Point", "coordinates": [ -104.771043, 40.414034 ] } },
{ "type": "Feature", "properties": { "city": "Belcamp, MD", "cases": 1, "date": " August 18, 2014", "n": 41777, "shape": " Fireball", "state": "MD", "year": 2014, "reports": 5 }, "geometry": { "type": "Point", "coordinates": [ -76.241344599999906, 39.4737199 ] } },
{ "type": "Feature", "properties": { "city": "Portland, OR", "cases": 1, "date": " August 18, 2014", "n": 66153, "shape": " Oval", "state": "OR", "year": 2014, "reports": 5 }, "geometry": { "type": "Point", "coordinates": [ -122.649971, 45.536951 ] } },
{ "type": "Feature", "properties": { "city": "Chicago, IL", "cases": 1, "date": " August 22, 2014", "n": 32627, "shape": " Fireball", "state": "IL", "year": 2014, "reports": 5 }, "geometry": { "type": "Point", "coordinates": [ -87.681844, 41.837551 ] } },
{ "type": "Feature", "properties": { "city": "Enumclaw, WA", "cases": 1, "date": " August 23, 2014", "n": 85480, "shape": " Cigar", "state": "WA", "year": 2014, "reports": 5 }, "geometry": { "type": "Point", "coordinates": [ -121.988976, 47.202179 ] } },
{ "type": "Feature", "properties": { "city": "Ledyard, CT", "cases": 1, "date": " August 24, 2014", "n": 20302, "shape": " Fireball", "state": "CT", "year": 2014, "reports": 5 }, "geometry": { "type": "Point", "coordinates": [ -72.0172119, 41.4426384 ] } },
{ "type": "Feature", "properties": { "city": "Dawsonville, GA", "cases": 1, "date": " August 24, 2014", "n": 28889, "shape": " Circle", "state": "GA", "year": 2014, "reports": 5 }, "geometry": { "type": "Point", "coordinates": [ -84.124513, 34.433469 ] } },
{ "type": "Feature", "properties": { "city": "Menifee, CA", "cases": 1, "date": " August 27, 2014", "n": 9144, "shape": " Cigar", "state": "CA", "year": 2014, "reports": 5 }, "geometry": { "type": "Point", "coordinates": [ -117.184383, 33.689858 ] } },
{ "type": "Feature", "properties": { "city": "Dayton, OH", "cases": 1, "date": " August 30, 2014", "n": 59231, "shape": " Formation", "state": "OH", "year": 2014, "reports": 5 }, "geometry": { "type": "Point", "coordinates": [ -84.199632, 39.777394 ] } },
{ "type": "Feature", "properties": { "city": "Highland Park, IL", "cases": 1, "date": " September 3, 2014", "n": 32620, "shape": " Circle", "state": "IL", "year": 2014, "reports": 5 }, "geometry": { "type": "Point", "coordinates": [ -87.810845, 42.182372 ] } },
{ "type": "Feature", "properties": { "city": "Renton (east of; towards the Cascades, WA", "cases": 1, "date": " September 5, 2014", "n": 85462, "shape": " Circle", "state": "WA", "year": 2014, "reports": 5 }, "geometry": { "type": "Point", "coordinates": [ -122.191974, 47.476058 ] } },
{ "type": "Feature", "properties": { "city": "White Lake, MI", "cases": 1, "date": " September 7, 2014", "n": 46907, "shape": " Circle", "state": "MI", "year": 2014, "reports": 5 }, "geometry": { "type": "Point", "coordinates": [ -83.5541, 42.6917 ] } },
{ "type": "Feature", "properties": { "city": "Azusa (East Fork), CA", "cases": 1, "date": " September 14, 2014", "n": 9089, "shape": " Egg", "state": "CA", "year": 2014, "reports": 5 }, "geometry": { "type": "Point", "coordinates": [ -117.912253, 34.138524 ] } },
{ "type": "Feature", "properties": { "city": "North Myrtle Beach, SC", "cases": 1, "date": " September 18, 2014", "n": 73399, "shape": " Fireball", "state": "SC", "year": 2014, "reports": 5 }, "geometry": { "type": "Point", "coordinates": [ -78.751262, 33.802921 ] } },
{ "type": "Feature", "properties": { "city": "Indialantic, FL", "cases": 1, "date": " September 18, 2014", "n": 23887, "shape": " Circle", "state": "FL", "year": 2014, "reports": 5 }, "geometry": { "type": "Point", "coordinates": [ -80.568302, 28.08622 ] } },
{ "type": "Feature", "properties": { "city": "Beaverton, OR", "cases": 1, "date": " September 19, 2014", "n": 66131, "shape": " Circle", "state": "OR", "year": 2014, "reports": 5 }, "geometry": { "type": "Point", "coordinates": [ -122.814992, 45.47983 ] } },
{ "type": "Feature", "properties": { "city": "Newton, NJ", "cases": 1, "date": " September 26, 2014", "n": 54242, "shape": " Circle", "state": "NJ", "year": 2014, "reports": 5 }, "geometry": { "type": "Point", "coordinates": [ -74.753601, 41.051487 ] } },
{ "type": "Feature", "properties": { "city": "Dover, PA", "cases": 1, "date": " September 26, 2014", "n": 68428, "shape": " Triangle", "state": "PA", "year": 2014, "reports": 5 }, "geometry": { "type": "Point", "coordinates": [ -76.848431, 40.003302 ] } },
{ "type": "Feature", "properties": { "city": "Salem, OR", "cases": 1, "date": " September 28, 2014", "n": 66125, "shape": " Chevron", "state": "OR", "year": 2014, "reports": 5 }, "geometry": { "type": "Point", "coordinates": [ -123.023189, 44.923712 ] } },
{ "type": "Feature", "properties": { "city": "Pomona, CA", "cases": 1, "date": " October 5, 2014", "n": 9045, "shape": " Disk", "state": "CA", "year": 2014, "reports": 5 }, "geometry": { "type": "Point", "coordinates": [ -117.761091, 34.058494 ] } },
{ "type": "Feature", "properties": { "city": "Port Orchard, WA", "cases": 1, "date": " October 5, 2014", "n": 85414, "shape": " Rectangle", "state": "WA", "year": 2014, "reports": 5 }, "geometry": { "type": "Point", "coordinates": [ -122.634028, 47.53524 ] } },
{ "type": "Feature", "properties": { "city": "Fort Collins, CO", "cases": 1, "date": " October 14, 2014", "n": 21535, "shape": " Chevron", "state": "CO", "year": 2014, "reports": 5 }, "geometry": { "type": "Point", "coordinates": [ -105.064833, 40.548216 ] } },
{ "type": "Feature", "properties": { "city": "Parker, CO", "cases": 1, "date": " October 14, 2014", "n": 21536, "shape": " Chevron", "state": "CO", "year": 2014, "reports": 5 }, "geometry": { "type": "Point", "coordinates": [ -104.773173, 39.504167 ] } },
{ "type": "Feature", "properties": { "city": "Northborough, MA", "cases": 1, "date": " October 13, 2014", "n": 40048, "shape": " Circle", "state": "MA", "year": 2014, "reports": 5 }, "geometry": { "type": "Point", "coordinates": [ -71.647734, 42.31195 ] } },
{ "type": "Feature", "properties": { "city": "Cave Creek, AZ", "cases": 1, "date": " October 20, 2014", "n": 5573, "shape": " Circle", "state": "AZ", "year": 2014, "reports": 5 }, "geometry": { "type": "Point", "coordinates": [ -111.982084, 33.836219 ] } },
{ "type": "Feature", "properties": { "city": "Chillicothe, OH", "cases": 1, "date": " October 23, 2014", "n": 59178, "shape": " Formation", "state": "OH", "year": 2014, "reports": 5 }, "geometry": { "type": "Point", "coordinates": [ -82.994059, 39.33866 ] } },
{ "type": "Feature", "properties": { "city": "Rehoboth Beach, DC", "cases": 1, "date": " October 26, 2014", "n": 20115, "shape": " Disk", "state": "DC", "year": 2014, "reports": 5 }, "geometry": { "type": "Point", "coordinates": [ -77.0172653, 38.906189 ] } },
{ "type": "Feature", "properties": { "city": "Portage, IN", "cases": 1, "date": " October 25, 2014", "n": 35677, "shape": " Circle", "state": "IN", "year": 2014, "reports": 5 }, "geometry": { "type": "Point", "coordinates": [ -87.178938, 41.591614 ] } },
{ "type": "Feature", "properties": { "city": "Worcester, MA", "cases": 1, "date": " October 25, 2014", "n": 40042, "shape": " Circle", "state": "MA", "year": 2014, "reports": 5 }, "geometry": { "type": "Point", "coordinates": [ -71.807783, 42.269478 ] } },
{ "type": "Feature", "properties": { "city": "Oracle, AZ", "cases": 1, "date": " October 28, 2014", "n": 5558, "shape": " Sphere", "state": "AZ", "year": 2014, "reports": 5 }, "geometry": { "type": "Point", "coordinates": [ -110.781782, 32.609207 ] } },
{ "type": "Feature", "properties": { "city": "Fairfield, CA", "cases": 1, "date": " November 14, 2014", "n": 8970, "shape": " Circle", "state": "CA", "year": 2014, "reports": 5 }, "geometry": { "type": "Point", "coordinates": [ -122.039719, 38.256757 ] } },
{ "type": "Feature", "properties": { "city": "Casselberry, FL", "cases": 1, "date": " December 13, 2014", "n": 23763, "shape": " Flash", "state": "FL", "year": 2014, "reports": 5 }, "geometry": { "type": "Point", "coordinates": [ -81.321926, 28.661183 ] } },
{ "type": "Feature", "properties": { "city": "Port St. Lucie, FL", "cases": 1, "date": " December 14, 2014", "n": 23758, "shape": " Disk", "state": "FL", "year": 2014, "reports": 5 }, "geometry": { "type": "Point", "coordinates": [ -80.383762, 27.280951 ] } },
{ "type": "Feature", "properties": { "city": "Burlington, MA", "cases": 1, "date": " December 15, 2014", "n": 40018, "shape": " Diamond", "state": "MA", "year": 2014, "reports": 5 }, "geometry": { "type": "Point", "coordinates": [ -71.201713, 42.503227 ] } },
{ "type": "Feature", "properties": { "city": "Oak Ridge, NJ", "cases": 1, "date": " December 21, 2014", "n": 54205, "shape": " Cone", "state": "NJ", "year": 2014, "reports": 5 }, "geometry": { "type": "Point", "coordinates": [ -74.485685, 41.046362 ] } },
{ "type": "Feature", "properties": { "city": "Rancho Cordova, CA", "cases": 1, "date": " December 22, 2014", "n": 8896, "shape": " Triangle", "state": "CA", "year": 2014, "reports": 5 }, "geometry": { "type": "Point", "coordinates": [ -121.246692, 38.576181 ] } },
{ "type": "Feature", "properties": { "city": "Pasadena, MD", "cases": 1, "date": " December 31, 2014", "n": 41710, "shape": " Disk", "state": "MD", "year": 2014, "reports": 5 }, "geometry": { "type": "Point", "coordinates": [ -76.554989, 39.155584 ] } },
{ "type": "Feature", "properties": { "city": "Chandler, AZ", "cases": 1, "date": " January 1, 2014", "n": 5811, "shape": " Sphere", "state": "AZ", "year": 2014, "reports": 4 }, "geometry": { "type": "Point", "coordinates": [ -111.854943, 33.282874 ] } },
{ "type": "Feature", "properties": { "city": "Goose Creek, SC", "cases": 1, "date": " January 1, 2014", "n": 73593, "shape": " Circle", "state": "SC", "year": 2014, "reports": 4 }, "geometry": { "type": "Point", "coordinates": [ -80.006721, 32.991585 ] } },
{ "type": "Feature", "properties": { "city": "Waxhaw, NC", "cases": 1, "date": " January 1, 2014", "n": 50801, "shape": " Disk", "state": "NC", "year": 2014, "reports": 4 }, "geometry": { "type": "Point", "coordinates": [ -80.739969, 34.937467 ] } },
{ "type": "Feature", "properties": { "city": "Tucson, AZ", "cases": 1, "date": " January 1, 2014", "n": 5809, "shape": " Circle", "state": "AZ", "year": 2014, "reports": 4 }, "geometry": { "type": "Point", "coordinates": [ -110.871064, 32.153695 ] } },
{ "type": "Feature", "properties": { "city": "North Myrtle Beach, SC", "cases": 1, "date": " January 1, 2014", "n": 73590, "shape": " Fireball", "state": "SC", "year": 2014, "reports": 4 }, "geometry": { "type": "Point", "coordinates": [ -78.751262, 33.802921 ] } },
{ "type": "Feature", "properties": { "city": "Marina del Rey, CA", "cases": 1, "date": " January 3, 2014", "n": 9706, "shape": " Rectangle", "state": "CA", "year": 2014, "reports": 4 }, "geometry": { "type": "Point", "coordinates": [ -118.455222, 33.976582 ] } },
{ "type": "Feature", "properties": { "city": "Long Beach, CA", "cases": 1, "date": " January 4, 2014", "n": 9703, "shape": " Fireball", "state": "CA", "year": 2014, "reports": 4 }, "geometry": { "type": "Point", "coordinates": [ -118.15529, 33.809179 ] } },
{ "type": "Feature", "properties": { "city": "Mesa, AZ", "cases": 1, "date": " January 7, 2014", "n": 5801, "shape": " Fireball", "state": "AZ", "year": 2014, "reports": 4 }, "geometry": { "type": "Point", "coordinates": [ -111.717379, 33.401926 ] } },
{ "type": "Feature", "properties": { "city": "Sun Valley, CA", "cases": 1, "date": " January 11, 2014", "n": 9680, "shape": " Fireball", "state": "CA", "year": 2014, "reports": 4 }, "geometry": { "type": "Point", "coordinates": [ -118.381256, 34.22793 ] } },
{ "type": "Feature", "properties": { "city": "Durham, NC", "cases": 1, "date": " January 18, 2014", "n": 50785, "shape": " Circle", "state": "NC", "year": 2014, "reports": 4 }, "geometry": { "type": "Point", "coordinates": [ -78.902925, 35.981149 ] } },
{ "type": "Feature", "properties": { "city": "Miramar, FL", "cases": 1, "date": " January 22, 2014", "n": 24324, "shape": " Unknown", "state": "FL", "year": 2014, "reports": 4 }, "geometry": { "type": "Point", "coordinates": [ -80.335829, 25.976953 ] } },
{ "type": "Feature", "properties": { "city": "Maricopa, AZ", "cases": 1, "date": " January 22, 2014", "n": 5783, "shape": " Circle", "state": "AZ", "year": 2014, "reports": 4 }, "geometry": { "type": "Point", "coordinates": [ -112.015485, 33.045487 ] } },
{ "type": "Feature", "properties": { "city": "Santa Cruz, CA", "cases": 1, "date": " January 25, 2014", "n": 9651, "shape": " Diamond", "state": "CA", "year": 2014, "reports": 4 }, "geometry": { "type": "Point", "coordinates": [ -122.035268, 36.974385 ] } },
{ "type": "Feature", "properties": { "city": "Cape Coral, FL", "cases": 1, "date": " January 25, 2014", "n": 24317, "shape": " Fireball", "state": "FL", "year": 2014, "reports": 4 }, "geometry": { "type": "Point", "coordinates": [ -81.997364, 26.643192 ] } },
{ "type": "Feature", "properties": { "city": "Kearny, NJ", "cases": 1, "date": " January 26, 2014", "n": 54355, "shape": " Fireball", "state": "NJ", "year": 2014, "reports": 4 }, "geometry": { "type": "Point", "coordinates": [ -74.119467, 40.754144 ] } },
{ "type": "Feature", "properties": { "city": "Kent, WA", "cases": 1, "date": " January 25, 2014", "n": 85693, "shape": " Fireball", "state": "WA", "year": 2014, "reports": 4 }, "geometry": { "type": "Point", "coordinates": [ -122.212727, 47.38797 ] } },
{ "type": "Feature", "properties": { "city": "Cummings, GA", "cases": 1, "date": " January 31, 2014", "n": 29018, "shape": " Triangle", "state": "GA", "year": 2014, "reports": 4 }, "geometry": { "type": "Point", "coordinates": [ -84.1399384, 34.2035713 ] } },
{ "type": "Feature", "properties": { "city": "Fairfield, CA", "cases": 1, "date": " February 2, 2014", "n": 9635, "shape": " Disk", "state": "CA", "year": 2014, "reports": 4 }, "geometry": { "type": "Point", "coordinates": [ -122.039719, 38.256757 ] } },
{ "type": "Feature", "properties": { "city": "Huntington Beach, CA", "cases": 1, "date": " February 2, 2014", "n": 9637, "shape": " Fireball", "state": "CA", "year": 2014, "reports": 4 }, "geometry": { "type": "Point", "coordinates": [ -118.00933, 33.690569 ] } },
{ "type": "Feature", "properties": { "city": "Las Vegas, NV", "cases": 1, "date": " February 6, 2014", "n": 56120, "shape": " Circle", "state": "NV", "year": 2014, "reports": 4 }, "geometry": { "type": "Point", "coordinates": [ -115.260082, 36.229214 ] } },
{ "type": "Feature", "properties": { "city": "Woodland Hills, CA", "cases": 1, "date": " February 7, 2014", "n": 9625, "shape": " Circle", "state": "CA", "year": 2014, "reports": 4 }, "geometry": { "type": "Point", "coordinates": [ -118.6048813, 34.1661758 ] } },
{ "type": "Feature", "properties": { "city": "Westminster, MD", "cases": 1, "date": " February 7, 2014", "n": 41847, "shape": " Unknown", "state": "MD", "year": 2014, "reports": 4 }, "geometry": { "type": "Point", "coordinates": [ -77.008396, 39.579669 ] } },
{ "type": "Feature", "properties": { "city": "City of Industry, CA", "cases": 1, "date": " February 15, 2014", "n": 9610, "shape": " Cylinder", "state": "CA", "year": 2014, "reports": 4 }, "geometry": { "type": "Point", "coordinates": [ -117.9566116, 34.0233612 ] } },
{ "type": "Feature", "properties": { "city": "Exton, PA", "cases": 1, "date": " February 14, 2014", "n": 68707, "shape": " Fireball", "state": "PA", "year": 2014, "reports": 4 }, "geometry": { "type": "Point", "coordinates": [ -75.633061, 40.029916 ] } },
{ "type": "Feature", "properties": { "city": "Lakeland, FL", "cases": 1, "date": " February 15, 2014", "n": 24270, "shape": " Fireball", "state": "FL", "year": 2014, "reports": 4 }, "geometry": { "type": "Point", "coordinates": [ -81.954916, 28.055494 ] } },
{ "type": "Feature", "properties": { "city": "Atwater, CA", "cases": 1, "date": " February 17, 2014", "n": 9603, "shape": " Circle", "state": "CA", "year": 2014, "reports": 4 }, "geometry": { "type": "Point", "coordinates": [ -120.597177, 37.354049 ] } },
{ "type": "Feature", "properties": { "city": "Lantana, FL", "cases": 1, "date": " February 16, 2014", "n": 24267, "shape": " Fireball", "state": "FL", "year": 2014, "reports": 4 }, "geometry": { "type": "Point", "coordinates": [ -80.05538, 26.58336 ] } },
{ "type": "Feature", "properties": { "city": "Venice, CA", "cases": 1, "date": " February 20, 2014", "n": 9594, "shape": " Circle", "state": "CA", "year": 2014, "reports": 4 }, "geometry": { "type": "Point", "coordinates": [ -118.4626083, 33.991745 ] } },
{ "type": "Feature", "properties": { "city": "Washington, D.C., DC", "cases": 1, "date": " February 22, 2014", "n": 20119, "shape": " Chevron", "state": "DC", "year": 2014, "reports": 4 }, "geometry": { "type": "Point", "coordinates": [ -77.017229, 38.904103 ] } },
{ "type": "Feature", "properties": { "city": "New York City (Bronx), NY", "cases": 1, "date": " February 22, 2014", "n": 62434, "shape": " Circle", "state": "NY", "year": 2014, "reports": 4 }, "geometry": { "type": "Point", "coordinates": [ -74.005941, 40.712784 ] } },
{ "type": "Feature", "properties": { "city": "Jeffersonville, VT", "cases": 1, "date": " February 22, 2014", "n": 83324, "shape": " Fireball", "state": "VT", "year": 2014, "reports": 4 }, "geometry": { "type": "Point", "coordinates": [ -72.826096, 44.64659 ] } },
{ "type": "Feature", "properties": { "city": "Hillsboro, OH", "cases": 1, "date": " February 26, 2014", "n": 59401, "shape": " Fireball", "state": "OH", "year": 2014, "reports": 4 }, "geometry": { "type": "Point", "coordinates": [ -83.611267, 39.212433 ] } },
{ "type": "Feature", "properties": { "city": "Davie, FL", "cases": 1, "date": " February 28, 2014", "n": 24243, "shape": " Circle", "state": "FL", "year": 2014, "reports": 4 }, "geometry": { "type": "Point", "coordinates": [ -80.285028, 26.079142 ] } },
{ "type": "Feature", "properties": { "city": "Modesto, CA", "cases": 1, "date": " March 5, 2014", "n": 9558, "shape": " Triangle", "state": "CA", "year": 2014, "reports": 4 }, "geometry": { "type": "Point", "coordinates": [ -121.003049, 37.637533 ] } },
{ "type": "Feature", "properties": { "city": "Lakeland, FL", "cases": 1, "date": " March 9, 2014", "n": 24219, "shape": " Unknown", "state": "FL", "year": 2014, "reports": 4 }, "geometry": { "type": "Point", "coordinates": [ -81.954916, 28.055494 ] } },
{ "type": "Feature", "properties": { "city": "Garden Grove, CA", "cases": 1, "date": " March 11, 2014", "n": 9546, "shape": " Circle", "state": "CA", "year": 2014, "reports": 4 }, "geometry": { "type": "Point", "coordinates": [ -117.960472, 33.778782 ] } },
{ "type": "Feature", "properties": { "city": "Seattle, WA", "cases": 1, "date": " March 13, 2014", "n": 85662, "shape": " Fireball", "state": "WA", "year": 2014, "reports": 4 }, "geometry": { "type": "Point", "coordinates": [ -122.350876, 47.620499 ] } },
{ "type": "Feature", "properties": { "city": "Florence Township, NJ", "cases": 1, "date": " March 16, 2014", "n": 54342, "shape": " Circle", "state": "NJ", "year": 2014, "reports": 4 }, "geometry": { "type": "Point", "coordinates": [ -74.786339, 40.096737 ] } },
{ "type": "Feature", "properties": { "city": "Coconut Creek, FL", "cases": 1, "date": " March 20, 2014", "n": 24196, "shape": " Circle", "state": "FL", "year": 2014, "reports": 4 }, "geometry": { "type": "Point", "coordinates": [ -80.184698, 26.279078 ] } },
{ "type": "Feature", "properties": { "city": "Apache Junction, AZ", "cases": 1, "date": " March 21, 2014", "n": 5738, "shape": " Fireball", "state": "AZ", "year": 2014, "reports": 4 }, "geometry": { "type": "Point", "coordinates": [ -111.535346, 33.398314 ] } },
{ "type": "Feature", "properties": { "city": "Reseda, CA", "cases": 1, "date": " March 22, 2014", "n": 9521, "shape": " Disk", "state": "CA", "year": 2014, "reports": 4 }, "geometry": { "type": "Point", "coordinates": [ -118.5360031, 34.2010994 ] } },
{ "type": "Feature", "properties": { "city": "Severna Park, MD", "cases": 1, "date": " March 22, 2014", "n": 41832, "shape": " Oval", "state": "MD", "year": 2014, "reports": 4 }, "geometry": { "type": "Point", "coordinates": [ -76.564893, 39.08664 ] } },
{ "type": "Feature", "properties": { "city": "Arnold, MD", "cases": 1, "date": " March 27, 2014", "n": 41830, "shape": " Triangle", "state": "MD", "year": 2014, "reports": 4 }, "geometry": { "type": "Point", "coordinates": [ -76.504985, 39.043193 ] } },
{ "type": "Feature", "properties": { "city": "Celebration, FL", "cases": 1, "date": " March 31, 2014", "n": 24178, "shape": " Sphere", "state": "FL", "year": 2014, "reports": 4 }, "geometry": { "type": "Point", "coordinates": [ -81.55106, 28.310344 ] } },
{ "type": "Feature", "properties": { "city": "Cooper City, FL", "cases": 1, "date": " March 31, 2014", "n": 24180, "shape": " Circle", "state": "FL", "year": 2014, "reports": 4 }, "geometry": { "type": "Point", "coordinates": [ -80.2718582, 26.0588093 ] } },
{ "type": "Feature", "properties": { "city": "Lawrenceville, NJ", "cases": 1, "date": " April 1, 2014", "n": 54337, "shape": " Circle", "state": "NJ", "year": 2014, "reports": 4 }, "geometry": { "type": "Point", "coordinates": [ -74.738521, 40.302627 ] } },
{ "type": "Feature", "properties": { "city": "Hammocks, FL", "cases": 1, "date": " April 5, 2014", "n": 24153, "shape": " Formation", "state": "FL", "year": 2014, "reports": 4 }, "geometry": { "type": "Point", "coordinates": [ -80.4448013, 25.6710491 ] } },
{ "type": "Feature", "properties": { "city": "Palm City, FL", "cases": 1, "date": " April 6, 2014", "n": 24152, "shape": " Formation", "state": "FL", "year": 2014, "reports": 4 }, "geometry": { "type": "Point", "coordinates": [ -80.2693634, 27.1695194 ] } },
{ "type": "Feature", "properties": { "city": "Bogart, GA", "cases": 1, "date": " April 9, 2014", "n": 28986, "shape": " Disk", "state": "GA", "year": 2014, "reports": 4 }, "geometry": { "type": "Point", "coordinates": [ -83.533749, 33.947625 ] } },
{ "type": "Feature", "properties": { "city": "West Los Angeles, CA", "cases": 1, "date": " April 11, 2014", "n": 9476, "shape": " Circle", "state": "CA", "year": 2014, "reports": 4 }, "geometry": { "type": "Point", "coordinates": [ -118.452446, 34.0394402 ] } },
{ "type": "Feature", "properties": { "city": "Phoenix, AZ", "cases": 1, "date": " April 11, 2014", "n": 5721, "shape": " Fireball", "state": "AZ", "year": 2014, "reports": 4 }, "geometry": { "type": "Point", "coordinates": [ -112.090132, 33.572154 ] } },
{ "type": "Feature", "properties": { "city": "Wheatfield, IN", "cases": 1, "date": " April 11, 2014", "n": 35764, "shape": " Cigar", "state": "IN", "year": 2014, "reports": 4 }, "geometry": { "type": "Point", "coordinates": [ -87.05258, 41.19105 ] } },
{ "type": "Feature", "properties": { "city": "Albany, OH", "cases": 1, "date": " April 11, 2014", "n": 59384, "shape": " Sphere", "state": "OH", "year": 2014, "reports": 4 }, "geometry": { "type": "Point", "coordinates": [ -82.194727, 39.226532 ] } },
{ "type": "Feature", "properties": { "city": "Casa Grande, AZ", "cases": 1, "date": " April 14, 2014", "n": 5715, "shape": " Fireball", "state": "AZ", "year": 2014, "reports": 4 }, "geometry": { "type": "Point", "coordinates": [ -111.76234, 32.907097 ] } },
{ "type": "Feature", "properties": { "city": "Jamestown, OH", "cases": 1, "date": " April 19, 2014", "n": 59375, "shape": " Sphere", "state": "OH", "year": 2014, "reports": 4 }, "geometry": { "type": "Point", "coordinates": [ -83.742737, 39.659458 ] } },
{ "type": "Feature", "properties": { "city": "Tamarac, FL", "cases": 1, "date": " April 24, 2014", "n": 24116, "shape": " Fireball", "state": "FL", "year": 2014, "reports": 4 }, "geometry": { "type": "Point", "coordinates": [ -80.25675, 26.203448 ] } },
{ "type": "Feature", "properties": { "city": "Riverside, NJ", "cases": 1, "date": " April 26, 2014", "n": 54326, "shape": " Diamond", "state": "NJ", "year": 2014, "reports": 4 }, "geometry": { "type": "Point", "coordinates": [ -74.9604568, 40.0378418 ] } },
{ "type": "Feature", "properties": { "city": "Sunrise, FL", "cases": 1, "date": " April 28, 2014", "n": 24108, "shape": " Diamond", "state": "FL", "year": 2014, "reports": 4 }, "geometry": { "type": "Point", "coordinates": [ -80.261633, 26.171601 ] } },
{ "type": "Feature", "properties": { "city": "Maricopa, AZ", "cases": 1, "date": " May 1, 2014", "n": 5694, "shape": " Circle", "state": "AZ", "year": 2014, "reports": 4 }, "geometry": { "type": "Point", "coordinates": [ -112.015485, 33.045487 ] } },
{ "type": "Feature", "properties": { "city": "Ellijay, GA", "cases": 1, "date": " May 1, 2014", "n": 28970, "shape": " Unknown", "state": "GA", "year": 2014, "reports": 4 }, "geometry": { "type": "Point", "coordinates": [ -84.483921, 34.691323 ] } },
{ "type": "Feature", "properties": { "city": "Carrollton, TX", "cases": 1, "date": " May 1, 2014", "n": 76520, "shape": " Cigar", "state": "TX", "year": 2014, "reports": 4 }, "geometry": { "type": "Point", "coordinates": [ -96.89977, 32.98836 ] } },
{ "type": "Feature", "properties": { "city": "Hollywood, FL", "cases": 1, "date": " May 4, 2014", "n": 24099, "shape": " Circle", "state": "FL", "year": 2014, "reports": 4 }, "geometry": { "type": "Point", "coordinates": [ -80.164609, 26.030967 ] } },
{ "type": "Feature", "properties": { "city": "West Palm Beach, FL", "cases": 1, "date": " May 6, 2014", "n": 24095, "shape": " Fireball", "state": "FL", "year": 2014, "reports": 4 }, "geometry": { "type": "Point", "coordinates": [ -80.12506, 26.746362 ] } },
{ "type": "Feature", "properties": { "city": "Theodore, AL", "cases": 1, "date": " May 7, 2014", "n": 528, "shape": " Circle", "state": "AL", "year": 2014, "reports": 4 }, "geometry": { "type": "Point", "coordinates": [ -88.187573, 30.538686 ] } },
{ "type": "Feature", "properties": { "city": "Naugatuck, CT", "cases": 1, "date": " May 7, 2014", "n": 20340, "shape": " Fireball", "state": "CT", "year": 2014, "reports": 4 }, "geometry": { "type": "Point", "coordinates": [ -73.05192, 41.488478 ] } },
{ "type": "Feature", "properties": { "city": "Riverview, FL", "cases": 1, "date": " May 10, 2014", "n": 24088, "shape": " Fireball", "state": "FL", "year": 2014, "reports": 4 }, "geometry": { "type": "Point", "coordinates": [ -82.304593, 27.825175 ] } },
{ "type": "Feature", "properties": { "city": "North Myrtle Beach, SC", "cases": 1, "date": " May 13, 2014", "n": 73533, "shape": " Fireball", "state": "SC", "year": 2014, "reports": 4 }, "geometry": { "type": "Point", "coordinates": [ -78.751262, 33.802921 ] } },
{ "type": "Feature", "properties": { "city": "Goodyear, AZ", "cases": 1, "date": " May 15, 2014", "n": 5684, "shape": " Disk", "state": "AZ", "year": 2014, "reports": 4 }, "geometry": { "type": "Point", "coordinates": [ -112.366472, 33.254031 ] } },
{ "type": "Feature", "properties": { "city": "Middletown, CT", "cases": 1, "date": " May 16, 2014", "n": 20336, "shape": " Fireball", "state": "CT", "year": 2014, "reports": 4 }, "geometry": { "type": "Point", "coordinates": [ -72.656784, 41.548611 ] } },
{ "type": "Feature", "properties": { "city": "Somers, NY", "cases": 1, "date": " May 18, 2014", "n": 62391, "shape": " Fireball", "state": "NY", "year": 2014, "reports": 4 }, "geometry": { "type": "Point", "coordinates": [ -73.736017, 41.299631 ] } },
{ "type": "Feature", "properties": { "city": "Orlando, FL", "cases": 1, "date": " May 19, 2014", "n": 24078, "shape": " Fireball", "state": "FL", "year": 2014, "reports": 4 }, "geometry": { "type": "Point", "coordinates": [ -81.29899, 28.415581 ] } },
{ "type": "Feature", "properties": { "city": "North Versailles, PA", "cases": 1, "date": " May 24, 2014", "n": 68639, "shape": " Fireball", "state": "PA", "year": 2014, "reports": 4 }, "geometry": { "type": "Point", "coordinates": [ -79.809492, 40.379791 ] } },
{ "type": "Feature", "properties": { "city": "Berwyn, PA", "cases": 1, "date": " May 24, 2014", "n": 68635, "shape": " Circle", "state": "PA", "year": 2014, "reports": 4 }, "geometry": { "type": "Point", "coordinates": [ -75.442087, 40.038794 ] } },
{ "type": "Feature", "properties": { "city": "Antelope, CA", "cases": 1, "date": " May 25, 2014", "n": 9375, "shape": " Circle", "state": "CA", "year": 2014, "reports": 4 }, "geometry": { "type": "Point", "coordinates": [ -121.36096, 38.715325 ] } },
{ "type": "Feature", "properties": { "city": "Garden City, SC", "cases": 1, "date": " May 27, 2014", "n": 73529, "shape": " Circle", "state": "SC", "year": 2014, "reports": 4 }, "geometry": { "type": "Point", "coordinates": [ -79.008646, 33.592947 ] } },
{ "type": "Feature", "properties": { "city": "Long Valley, NJ", "cases": 1, "date": " June 3, 2014", "n": 54313, "shape": " Fireball", "state": "NJ", "year": 2014, "reports": 4 }, "geometry": { "type": "Point", "coordinates": [ -74.776936, 40.78225 ] } },
{ "type": "Feature", "properties": { "city": "Sunrise, FL", "cases": 1, "date": " June 6, 2014", "n": 24056, "shape": " Chevron", "state": "FL", "year": 2014, "reports": 4 }, "geometry": { "type": "Point", "coordinates": [ -80.261633, 26.171601 ] } },
{ "type": "Feature", "properties": { "city": "Hermann, MO", "cases": 1, "date": " June 14, 2014", "n": 43709, "shape": " Triangle", "state": "MO", "year": 2014, "reports": 4 }, "geometry": { "type": "Point", "coordinates": [ -91.434865, 38.697652 ] } },
{ "type": "Feature", "properties": { "city": "Denver, CO", "cases": 1, "date": " June 14, 2014", "n": 21627, "shape": " Egg", "state": "CO", "year": 2014, "reports": 4 }, "geometry": { "type": "Point", "coordinates": [ -104.881222, 39.761842 ] } },
{ "type": "Feature", "properties": { "city": "Doylestown, PA", "cases": 1, "date": " June 17, 2014", "n": 68616, "shape": " Circle", "state": "PA", "year": 2014, "reports": 4 }, "geometry": { "type": "Point", "coordinates": [ -75.127697, 40.314197 ] } },
{ "type": "Feature", "properties": { "city": "North Versailles, PA", "cases": 1, "date": " June 16, 2014", "n": 68617, "shape": " Circle", "state": "PA", "year": 2014, "reports": 4 }, "geometry": { "type": "Point", "coordinates": [ -79.809492, 40.379791 ] } },
{ "type": "Feature", "properties": { "city": "Bloomsbury, NJ", "cases": 1, "date": " June 18, 2014", "n": 54299, "shape": " Circle", "state": "NJ", "year": 2014, "reports": 4 }, "geometry": { "type": "Point", "coordinates": [ -75.076497, 40.656674 ] } },
{ "type": "Feature", "properties": { "city": "Denver, CO", "cases": 1, "date": " June 19, 2014", "n": 21624, "shape": " Oval", "state": "CO", "year": 2014, "reports": 4 }, "geometry": { "type": "Point", "coordinates": [ -104.881222, 39.761842 ] } },
{ "type": "Feature", "properties": { "city": "Brooksville, FL", "cases": 1, "date": " June 21, 2014", "n": 24035, "shape": " Fireball", "state": "FL", "year": 2014, "reports": 4 }, "geometry": { "type": "Point", "coordinates": [ -82.404665, 28.516578 ] } },
{ "type": "Feature", "properties": { "city": "New York City (Brooklyn), NY", "cases": 1, "date": " June 22, 2014", "n": 62360, "shape": " Circle", "state": "NY", "year": 2014, "reports": 4 }, "geometry": { "type": "Point", "coordinates": [ -74.005941, 40.712784 ] } },
{ "type": "Feature", "properties": { "city": "Leland, NC", "cases": 1, "date": " June 23, 2014", "n": 50671, "shape": " Circle", "state": "NC", "year": 2014, "reports": 4 }, "geometry": { "type": "Point", "coordinates": [ -78.003774, 34.190766 ] } },
{ "type": "Feature", "properties": { "city": "Geraldine, AL", "cases": 1, "date": " June 27, 2014", "n": 511, "shape": " Circle", "state": "AL", "year": 2014, "reports": 4 }, "geometry": { "type": "Point", "coordinates": [ -86.002579, 34.359087 ] } },
{ "type": "Feature", "properties": { "city": "Beaumont, CA", "cases": 1, "date": " June 27, 2014", "n": 9288, "shape": " Triangle", "state": "CA", "year": 2014, "reports": 4 }, "geometry": { "type": "Point", "coordinates": [ -116.950461, 33.863083 ] } },
{ "type": "Feature", "properties": { "city": "Grand Blanc, MI", "cases": 1, "date": " June 27, 2014", "n": 46972, "shape": " Fireball", "state": "MI", "year": 2014, "reports": 4 }, "geometry": { "type": "Point", "coordinates": [ -83.616881, 42.928522 ] } },
{ "type": "Feature", "properties": { "city": "Laguna Niguel, CA", "cases": 1, "date": " June 29, 2014", "n": 9284, "shape": " Chevron", "state": "CA", "year": 2014, "reports": 4 }, "geometry": { "type": "Point", "coordinates": [ -117.701175, 33.528868 ] } },
{ "type": "Feature", "properties": { "city": "Allentown, PA", "cases": 1, "date": " July 1, 2014", "n": 68592, "shape": " Circle", "state": "PA", "year": 2014, "reports": 4 }, "geometry": { "type": "Point", "coordinates": [ -75.478393, 40.593648 ] } },
{ "type": "Feature", "properties": { "city": "El Cajon, CA", "cases": 1, "date": " July 3, 2014", "n": 9272, "shape": " Circle", "state": "CA", "year": 2014, "reports": 4 }, "geometry": { "type": "Point", "coordinates": [ -116.960379, 32.8017 ] } },
{ "type": "Feature", "properties": { "city": "Owensboro, KY", "cases": 1, "date": " July 3, 2014", "n": 38163, "shape": " Fireball", "state": "KY", "year": 2014, "reports": 4 }, "geometry": { "type": "Point", "coordinates": [ -87.119125, 37.756764 ] } },
{ "type": "Feature", "properties": { "city": "Independence, OH", "cases": 1, "date": " July 3, 2014", "n": 59300, "shape": " Circle", "state": "OH", "year": 2014, "reports": 4 }, "geometry": { "type": "Point", "coordinates": [ -81.63329, 41.380013 ] } },
{ "type": "Feature", "properties": { "city": "Healdsburg, CA", "cases": 1, "date": " July 4, 2014", "n": 9269, "shape": " Circle", "state": "CA", "year": 2014, "reports": 4 }, "geometry": { "type": "Point", "coordinates": [ -122.865692, 38.622571 ] } },
{ "type": "Feature", "properties": { "city": "Coral Spring, FL", "cases": 1, "date": " July 4, 2014", "n": 23997, "shape": " Circle", "state": "FL", "year": 2014, "reports": 4 }, "geometry": { "type": "Point", "coordinates": [ -80.2531509, 26.2724895 ] } },
{ "type": "Feature", "properties": { "city": "Fort Wayne, IN", "cases": 1, "date": " July 4, 2014", "n": 35721, "shape": " Flash", "state": "IN", "year": 2014, "reports": 4 }, "geometry": { "type": "Point", "coordinates": [ -85.14388, 41.088173 ] } },
{ "type": "Feature", "properties": { "city": "Mooresville, NC", "cases": 1, "date": " July 4, 2014", "n": 50658, "shape": " Disk", "state": "NC", "year": 2014, "reports": 4 }, "geometry": { "type": "Point", "coordinates": [ -80.821272, 35.584347 ] } },
{ "type": "Feature", "properties": { "city": "Eugene, OR", "cases": 1, "date": " July 4, 2014", "n": 66200, "shape": " Sphere", "state": "OR", "year": 2014, "reports": 4 }, "geometry": { "type": "Point", "coordinates": [ -123.116207, 44.056748 ] } },
{ "type": "Feature", "properties": { "city": "Gun Barrel City, TX", "cases": 1, "date": " July 4, 2014", "n": 76470, "shape": " Disk", "state": "TX", "year": 2014, "reports": 4 }, "geometry": { "type": "Point", "coordinates": [ -96.1466675, 32.3308983 ] } },
{ "type": "Feature", "properties": { "city": "Richfield, WI", "cases": 1, "date": " July 4, 2014", "n": 83789, "shape": " Fireball", "state": "WI", "year": 2014, "reports": 4 }, "geometry": { "type": "Point", "coordinates": [ -88.234017, 43.23939 ] } },
{ "type": "Feature", "properties": { "city": "Macon, GA", "cases": 1, "date": " July 6, 2014", "n": 28919, "shape": " Circle", "state": "GA", "year": 2014, "reports": 4 }, "geometry": { "type": "Point", "coordinates": [ -83.648918, 32.830953 ] } },
{ "type": "Feature", "properties": { "city": "Garfield, AR", "cases": 1, "date": " July 6, 2014", "n": 1350, "shape": " Formation", "state": "AR", "year": 2014, "reports": 4 }, "geometry": { "type": "Point", "coordinates": [ -93.975521, 36.45632 ] } },
{ "type": "Feature", "properties": { "city": "Carlsbad, CA", "cases": 1, "date": " July 11, 2014", "n": 9232, "shape": " Circle", "state": "CA", "year": 2014, "reports": 4 }, "geometry": { "type": "Point", "coordinates": [ -117.282835, 33.123909 ] } },
{ "type": "Feature", "properties": { "city": "Mercer, PA", "cases": 1, "date": " July 11, 2014", "n": 68552, "shape": " Fireball", "state": "PA", "year": 2014, "reports": 4 }, "geometry": { "type": "Point", "coordinates": [ -80.236348, 41.226516 ] } },
{ "type": "Feature", "properties": { "city": "Surfside Beach, SC", "cases": 1, "date": " July 14, 2014", "n": 73446, "shape": " Sphere", "state": "SC", "year": 2014, "reports": 4 }, "geometry": { "type": "Point", "coordinates": [ -78.97754, 33.609651 ] } },
{ "type": "Feature", "properties": { "city": "Shreveport, LA", "cases": 1, "date": " July 14, 2014", "n": 39277, "shape": " Disk", "state": "LA", "year": 2014, "reports": 4 }, "geometry": { "type": "Point", "coordinates": [ -93.792193, 32.466879 ] } },
{ "type": "Feature", "properties": { "city": "Fort Mill, SC", "cases": 1, "date": " July 16, 2014", "n": 73441, "shape": " Formation", "state": "SC", "year": 2014, "reports": 4 }, "geometry": { "type": "Point", "coordinates": [ -80.936438, 35.00871 ] } },
{ "type": "Feature", "properties": { "city": "Bristol, CT", "cases": 1, "date": " July 18, 2014", "n": 20317, "shape": " Fireball", "state": "CT", "year": 2014, "reports": 4 }, "geometry": { "type": "Point", "coordinates": [ -72.940749, 41.681578 ] } },
{ "type": "Feature", "properties": { "city": "Brownstown, MI", "cases": 1, "date": " July 23, 2014", "n": 46940, "shape": " Sphere", "state": "MI", "year": 2014, "reports": 4 }, "geometry": { "type": "Point", "coordinates": [ -83.257233199999902, 42.1261157 ] } },
{ "type": "Feature", "properties": { "city": "Woburn, MA", "cases": 1, "date": " July 25, 2014", "n": 40128, "shape": " Circle", "state": "MA", "year": 2014, "reports": 4 }, "geometry": { "type": "Point", "coordinates": [ -71.154438, 42.488769 ] } },
{ "type": "Feature", "properties": { "city": "East Haven, CT", "cases": 1, "date": " July 27, 2014", "n": 20314, "shape": " Fireball", "state": "CT", "year": 2014, "reports": 4 }, "geometry": { "type": "Point", "coordinates": [ -72.858994, 41.293453 ] } },
{ "type": "Feature", "properties": { "city": "Dewey Beach, DE", "cases": 1, "date": " July 27, 2014", "n": 23355, "shape": " Diamond", "state": "DE", "year": 2014, "reports": 4 }, "geometry": { "type": "Point", "coordinates": [ -75.075198, 38.695716 ] } },
{ "type": "Feature", "properties": { "city": "Beaverton, OR", "cases": 1, "date": " July 27, 2014", "n": 66182, "shape": " Circle", "state": "OR", "year": 2014, "reports": 4 }, "geometry": { "type": "Point", "coordinates": [ -122.814992, 45.47983 ] } },
{ "type": "Feature", "properties": { "city": "Newport News, VA", "cases": 1, "date": " July 31, 2014", "n": 81665, "shape": " Circle", "state": "VA", "year": 2014, "reports": 4 }, "geometry": { "type": "Point", "coordinates": [ -76.521968, 37.076166 ] } },
{ "type": "Feature", "properties": { "city": "Waukegan, IL", "cases": 1, "date": " August 2, 2014", "n": 32636, "shape": " Circle", "state": "IL", "year": 2014, "reports": 4 }, "geometry": { "type": "Point", "coordinates": [ -87.870898, 42.369447 ] } },
{ "type": "Feature", "properties": { "city": "Denver, CO", "cases": 1, "date": " August 2, 2014", "n": 21592, "shape": " Circle", "state": "CO", "year": 2014, "reports": 4 }, "geometry": { "type": "Point", "coordinates": [ -104.881222, 39.761842 ] } },
{ "type": "Feature", "properties": { "city": "Tyngsboro, MA", "cases": 1, "date": " August 2, 2014", "n": 40122, "shape": " Circle", "state": "MA", "year": 2014, "reports": 4 }, "geometry": { "type": "Point", "coordinates": [ -71.424422, 42.67667 ] } },
{ "type": "Feature", "properties": { "city": "Tampa, FL", "cases": 1, "date": " August 8, 2014", "n": 23941, "shape": " Disk", "state": "FL", "year": 2014, "reports": 4 }, "geometry": { "type": "Point", "coordinates": [ -82.479673, 27.970086 ] } },
{ "type": "Feature", "properties": { "city": "Dunmore, PA", "cases": 1, "date": " August 8, 2014", "n": 68510, "shape": " Fireball", "state": "PA", "year": 2014, "reports": 4 }, "geometry": { "type": "Point", "coordinates": [ -75.606258, 41.413987 ] } },
{ "type": "Feature", "properties": { "city": "Petersburg, VA", "cases": 1, "date": " August 8, 2014", "n": 81662, "shape": " Fireball", "state": "VA", "year": 2014, "reports": 4 }, "geometry": { "type": "Point", "coordinates": [ -77.392368, 37.20473 ] } },
{ "type": "Feature", "properties": { "city": "Covington, LA", "cases": 1, "date": " August 15, 2014", "n": 39264, "shape": " Fireball", "state": "LA", "year": 2014, "reports": 4 }, "geometry": { "type": "Point", "coordinates": [ -90.112577, 30.480252 ] } },
{ "type": "Feature", "properties": { "city": "Selkirk, NY", "cases": 1, "date": " August 14, 2014", "n": 62281, "shape": " Diamond", "state": "NY", "year": 2014, "reports": 4 }, "geometry": { "type": "Point", "coordinates": [ -73.7987595, 42.5326881 ] } },
{ "type": "Feature", "properties": { "city": "Bremerton, WA", "cases": 1, "date": " August 15, 2014", "n": 85493, "shape": " Circle", "state": "WA", "year": 2014, "reports": 4 }, "geometry": { "type": "Point", "coordinates": [ -122.716971, 47.539801 ] } },
{ "type": "Feature", "properties": { "city": "Dana Point, CA", "cases": 1, "date": " August 23, 2014", "n": 9166, "shape": " Circle", "state": "CA", "year": 2014, "reports": 4 }, "geometry": { "type": "Point", "coordinates": [ -117.713017, 33.463259 ] } },
{ "type": "Feature", "properties": { "city": "Lake worth, FL", "cases": 1, "date": " August 22, 2014", "n": 23925, "shape": " Circle", "state": "FL", "year": 2014, "reports": 4 }, "geometry": { "type": "Point", "coordinates": [ -80.058718, 26.61972 ] } },
{ "type": "Feature", "properties": { "city": "South Bethany Beach, DE", "cases": 1, "date": " August 27, 2014", "n": 23346, "shape": " Formation", "state": "DE", "year": 2014, "reports": 4 }, "geometry": { "type": "Point", "coordinates": [ -75.055181, 38.539556 ] } },
{ "type": "Feature", "properties": { "city": "Seattle (lower Queen Ann area), WA", "cases": 1, "date": " August 28, 2014", "n": 85474, "shape": " Circle", "state": "WA", "year": 2014, "reports": 4 }, "geometry": { "type": "Point", "coordinates": [ -122.350876, 47.620499 ] } },
{ "type": "Feature", "properties": { "city": "El Cajon, CA", "cases": 1, "date": " August 30, 2014", "n": 9133, "shape": " Cylinder", "state": "CA", "year": 2014, "reports": 4 }, "geometry": { "type": "Point", "coordinates": [ -116.960379, 32.8017 ] } },
{ "type": "Feature", "properties": { "city": "Minersville, PA", "cases": 1, "date": " September 1, 2014", "n": 68466, "shape": " Triangle", "state": "PA", "year": 2014, "reports": 4 }, "geometry": { "type": "Point", "coordinates": [ -76.259413, 40.690801 ] } },
{ "type": "Feature", "properties": { "city": "Rossmoor, NJ", "cases": 1, "date": " September 1, 2014", "n": 54251, "shape": " Sphere", "state": "NJ", "year": 2014, "reports": 4 }, "geometry": { "type": "Point", "coordinates": [ -74.472422, 40.332747 ] } },
{ "type": "Feature", "properties": { "city": "Heyburn, ID", "cases": 1, "date": " September 3, 2014", "n": 31850, "shape": " Oval", "state": "ID", "year": 2014, "reports": 4 }, "geometry": { "type": "Point", "coordinates": [ -113.762067, 42.559982 ] } },
{ "type": "Feature", "properties": { "city": "Bowie, MD", "cases": 1, "date": " September 2, 2014", "n": 41766, "shape": " Circle", "state": "MD", "year": 2014, "reports": 4 }, "geometry": { "type": "Point", "coordinates": [ -76.741124, 38.957072 ] } },
{ "type": "Feature", "properties": { "city": "Johnson City, TN", "cases": 1, "date": " September 3, 2014", "n": 74815, "shape": " Cigar", "state": "TN", "year": 2014, "reports": 4 }, "geometry": { "type": "Point", "coordinates": [ -82.3452835, 36.3200798 ] } },
{ "type": "Feature", "properties": { "city": "Three Rivers, CA", "cases": 1, "date": " September 10, 2014", "n": 9117, "shape": " Cigar", "state": "CA", "year": 2014, "reports": 4 }, "geometry": { "type": "Point", "coordinates": [ -118.880609, 36.431905 ] } },
{ "type": "Feature", "properties": { "city": "New York City (Bronx), NY", "cases": 1, "date": " September 11, 2014", "n": 62229, "shape": " Fireball", "state": "NY", "year": 2014, "reports": 4 }, "geometry": { "type": "Point", "coordinates": [ -74.005941, 40.712784 ] } },
{ "type": "Feature", "properties": { "city": "Cathedral City, CA", "cases": 1, "date": " September 12, 2014", "n": 9098, "shape": " Circle", "state": "CA", "year": 2014, "reports": 4 }, "geometry": { "type": "Point", "coordinates": [ -116.4640808, 33.7810097 ] } },
{ "type": "Feature", "properties": { "city": "Peabody, MA", "cases": 1, "date": " September 11, 2014", "n": 40083, "shape": " Rectangle", "state": "MA", "year": 2014, "reports": 4 }, "geometry": { "type": "Point", "coordinates": [ -70.969782, 42.534279 ] } },
{ "type": "Feature", "properties": { "city": "West Boylston, MA", "cases": 1, "date": " September 15, 2014", "n": 40079, "shape": " Fireball", "state": "MA", "year": 2014, "reports": 4 }, "geometry": { "type": "Point", "coordinates": [ -71.7839737, 42.358429 ] } },
{ "type": "Feature", "properties": { "city": "Lakewood, CO", "cases": 1, "date": " September 18, 2014", "n": 21561, "shape": " Circle", "state": "CO", "year": 2014, "reports": 4 }, "geometry": { "type": "Point", "coordinates": [ -105.117551, 39.698942 ] } },
{ "type": "Feature", "properties": { "city": "Gustine, CA", "cases": 1, "date": " September 19, 2014", "n": 9080, "shape": " Circle", "state": "CA", "year": 2014, "reports": 4 }, "geometry": { "type": "Point", "coordinates": [ -120.99487, 37.254514 ] } },
{ "type": "Feature", "properties": { "city": "Denver, CO", "cases": 1, "date": " September 19, 2014", "n": 21558, "shape": " Circle", "state": "CO", "year": 2014, "reports": 4 }, "geometry": { "type": "Point", "coordinates": [ -104.881222, 39.761842 ] } },
{ "type": "Feature", "properties": { "city": "Lincoln, MA", "cases": 1, "date": " September 19, 2014", "n": 40076, "shape": " Fireball", "state": "MA", "year": 2014, "reports": 4 }, "geometry": { "type": "Point", "coordinates": [ -71.3256302, 42.4141197 ] } },
{ "type": "Feature", "properties": { "city": "Alpharetta, GA", "cases": 1, "date": " September 20, 2014", "n": 28876, "shape": " Cigar", "state": "GA", "year": 2014, "reports": 4 }, "geometry": { "type": "Point", "coordinates": [ -84.275907, 34.070648 ] } },
{ "type": "Feature", "properties": { "city": "Kingwood, TX", "cases": 1, "date": " September 21, 2014", "n": 76369, "shape": " Circle", "state": "TX", "year": 2014, "reports": 4 }, "geometry": { "type": "Point", "coordinates": [ -95.1970978, 30.0498276 ] } },
{ "type": "Feature", "properties": { "city": "Frederick, MD", "cases": 1, "date": " September 23, 2014", "n": 41754, "shape": " Diamond", "state": "MD", "year": 2014, "reports": 4 }, "geometry": { "type": "Point", "coordinates": [ -77.415591, 39.43329 ] } },
{ "type": "Feature", "properties": { "city": "Colorado Springs, CO", "cases": 1, "date": " September 25, 2014", "n": 21553, "shape": " Egg", "state": "CO", "year": 2014, "reports": 4 }, "geometry": { "type": "Point", "coordinates": [ -104.760749, 38.867255 ] } },
{ "type": "Feature", "properties": { "city": "Minnetonka, MN", "cases": 1, "date": " September 27, 2014", "n": 45555, "shape": " Fireball", "state": "MN", "year": 2014, "reports": 4 }, "geometry": { "type": "Point", "coordinates": [ -93.456685, 44.932545 ] } },
{ "type": "Feature", "properties": { "city": "North Canton\/Jackson Township, OH", "cases": 1, "date": " September 27, 2014", "n": 59199, "shape": " Diamond", "state": "OH", "year": 2014, "reports": 4 }, "geometry": { "type": "Point", "coordinates": [ -81.397084, 40.874249 ] } },
{ "type": "Feature", "properties": { "city": "Manassas, VA", "cases": 1, "date": " September 27, 2014", "n": 81637, "shape": " Circle", "state": "VA", "year": 2014, "reports": 4 }, "geometry": { "type": "Point", "coordinates": [ -77.484536, 38.747172 ] } },
{ "type": "Feature", "properties": { "city": "Kenosha, WI", "cases": 1, "date": " September 27, 2014", "n": 83741, "shape": " Fireball", "state": "WI", "year": 2014, "reports": 4 }, "geometry": { "type": "Point", "coordinates": [ -87.873667, 42.585439 ] } },
{ "type": "Feature", "properties": { "city": "New River, AZ", "cases": 1, "date": " September 29, 2014", "n": 5594, "shape": " Oval", "state": "AZ", "year": 2014, "reports": 4 }, "geometry": { "type": "Point", "coordinates": [ -112.086107, 33.882591 ] } },
{ "type": "Feature", "properties": { "city": "Denver, CO", "cases": 1, "date": " October 4, 2014", "n": 21544, "shape": " Triangle", "state": "CO", "year": 2014, "reports": 4 }, "geometry": { "type": "Point", "coordinates": [ -104.881222, 39.761842 ] } },
{ "type": "Feature", "properties": { "city": "Troutdale, OR", "cases": 1, "date": " October 6, 2014", "n": 66118, "shape": " Circle", "state": "OR", "year": 2014, "reports": 4 }, "geometry": { "type": "Point", "coordinates": [ -122.393009, 45.538943 ] } },
{ "type": "Feature", "properties": { "city": "Oakland, CA", "cases": 1, "date": " October 7, 2014", "n": 9040, "shape": " Sphere", "state": "CA", "year": 2014, "reports": 4 }, "geometry": { "type": "Point", "coordinates": [ -122.22569, 37.769846 ] } },
{ "type": "Feature", "properties": { "city": "Sedona area, AZ", "cases": 1, "date": " October 11, 2014", "n": 5582, "shape": " Circle", "state": "AZ", "year": 2014, "reports": 4 }, "geometry": { "type": "Point", "coordinates": [ -111.6646957, 34.2929649 ] } },
{ "type": "Feature", "properties": { "city": "Cumming, GA", "cases": 1, "date": " October 11, 2014", "n": 28860, "shape": " Sphere", "state": "GA", "year": 2014, "reports": 4 }, "geometry": { "type": "Point", "coordinates": [ -84.133746, 34.207039 ] } },
{ "type": "Feature", "properties": { "city": "Pearl River, NY", "cases": 1, "date": " October 11, 2014", "n": 62191, "shape": " Sphere", "state": "NY", "year": 2014, "reports": 4 }, "geometry": { "type": "Point", "coordinates": [ -74.007832, 41.061561 ] } },
{ "type": "Feature", "properties": { "city": "Baldwin Park, CA", "cases": 1, "date": " October 17, 2014", "n": 9016, "shape": " Oval", "state": "CA", "year": 2014, "reports": 4 }, "geometry": { "type": "Point", "coordinates": [ -117.971286, 34.082824 ] } },